{
  "metadata": {
    "total_routes": 41,
    "total_stops": 856,
    "unique_routes": 26,
    "unique_stops": 676
  },
  "routes": [
    {
      "ROUTE_ID": "506",
      "ROUTE_NAME_CHI": "屯門碼頭至兆麟",
      "ROUTE_NAME_ENG": "Tuen Mun Ferry Pier to Siu Lun",
      "IS_CIRCULAR": "0",
      "LINE_UP": "506_SL",
      "LINE_DOWN": "506_TMFP",
      "REFERENCE_ID": "506",
      "stops": [
        {
          "ROUTE_ID": "506",
          "DIRECTION": "O",
          "STATION_SEQNO": "1",
          "STATION_ID": "506-U010",
          "STATION_LATITUDE": "22.37259",
          "STATION_LONGITUDE": "113.96699",
          "STATION_NAME_CHI": "屯門碼頭",
          "STATION_NAME_ENG": "Tuen Mun Ferry Pier",
          "REFERENCE_ID": "506"
        },
        {
          "ROUTE_ID": "506",
          "DIRECTION": "O",
          "STATION_SEQNO": "2",
          "STATION_ID": "506-U020",
          "STATION_LATITUDE": "22.375834",
          "STATION_LONGITUDE": "113.960628",
          "STATION_NAME_CHI": "美樂花園",
          "STATION_NAME_ENG": "Melody Garden",
          "REFERENCE_ID": "506"
        },
        {
          "ROUTE_ID": "506",
          "DIRECTION": "O",
          "STATION_SEQNO": "3",
          "STATION_ID": "506-U030",
          "STATION_LATITUDE": "22.378364",
          "STATION_LONGITUDE": "113.961965",
          "STATION_NAME_CHI": "輕鐵蝴蝶站",
          "STATION_NAME_ENG": "LR Butterfly Stop",
          "REFERENCE_ID": "506"
        },
        {
          "ROUTE_ID": "506",
          "DIRECTION": "O",
          "STATION_SEQNO": "4",
          "STATION_ID": "506-U040",
          "STATION_LATITUDE": "22.382203",
          "STATION_LONGITUDE": "113.96359",
          "STATION_NAME_CHI": "輕鐵車廠站",
          "STATION_NAME_ENG": "Light Rail Depot Stop",
          "REFERENCE_ID": "506"
        },
        {
          "ROUTE_ID": "506",
          "DIRECTION": "O",
          "STATION_SEQNO": "5",
          "STATION_ID": "506-U050",
          "STATION_LATITUDE": "22.385399",
          "STATION_LONGITUDE": "113.965222",
          "STATION_NAME_CHI": "輕鐵龍門站",
          "STATION_NAME_ENG": "LR Lung Mun Stop",
          "REFERENCE_ID": "506"
        },
        {
          "ROUTE_ID": "506",
          "DIRECTION": "O",
          "STATION_SEQNO": "6",
          "STATION_ID": "506-U060",
          "STATION_LATITUDE": "22.393627",
          "STATION_LONGITUDE": "113.96752",
          "STATION_NAME_CHI": "輕鐵青雲站",
          "STATION_NAME_ENG": "LR Tsing Wun Stop",
          "REFERENCE_ID": "506"
        },
        {
          "ROUTE_ID": "506",
          "DIRECTION": "O",
          "STATION_SEQNO": "7",
          "STATION_ID": "506-U070",
          "STATION_LATITUDE": "22.395064",
          "STATION_LONGITUDE": "113.969953",
          "STATION_NAME_CHI": "輕鐵建安站",
          "STATION_NAME_ENG": "LR Kin On Stop",
          "REFERENCE_ID": "506"
        },
        {
          "ROUTE_ID": "506",
          "DIRECTION": "O",
          "STATION_SEQNO": "8",
          "STATION_ID": "506-U080",
          "STATION_LATITUDE": "22.394117",
          "STATION_LONGITUDE": "113.973992",
          "STATION_NAME_CHI": "港鐵屯門站",
          "STATION_NAME_ENG": "MTR Tuen Mun Station",
          "REFERENCE_ID": "506"
        },
        {
          "ROUTE_ID": "506",
          "DIRECTION": "O",
          "STATION_SEQNO": "9",
          "STATION_ID": "506-U090",
          "STATION_LATITUDE": "22.391352",
          "STATION_LONGITUDE": "113.975474",
          "STATION_NAME_CHI": "屯門市中心",
          "STATION_NAME_ENG": "Tuen Mun Town Centre",
          "REFERENCE_ID": "506"
        },
        {
          "ROUTE_ID": "506",
          "DIRECTION": "O",
          "STATION_SEQNO": "10",
          "STATION_ID": "506-U100",
          "STATION_LATITUDE": "22.387312",
          "STATION_LONGITUDE": "113.975341",
          "STATION_NAME_CHI": "安定邨",
          "STATION_NAME_ENG": "On Ting Estate",
          "REFERENCE_ID": "506"
        },
        {
          "ROUTE_ID": "506",
          "DIRECTION": "O",
          "STATION_SEQNO": "11",
          "STATION_ID": "506-U110",
          "STATION_LATITUDE": "22.382916",
          "STATION_LONGITUDE": "113.976276",
          "STATION_NAME_CHI": "輕鐵三聖站",
          "STATION_NAME_ENG": "LR Sam Shing Stop",
          "REFERENCE_ID": "506"
        },
        {
          "ROUTE_ID": "506",
          "DIRECTION": "O",
          "STATION_SEQNO": "12",
          "STATION_ID": "506-U120",
          "STATION_LATITUDE": "22.38551",
          "STATION_LONGITUDE": "113.9767",
          "STATION_NAME_CHI": "兆麟",
          "STATION_NAME_ENG": "Siu Lun",
          "REFERENCE_ID": "506"
        },
        {
          "ROUTE_ID": "506",
          "DIRECTION": "I",
          "STATION_SEQNO": "1",
          "STATION_ID": "506-D010",
          "STATION_LATITUDE": "22.38551",
          "STATION_LONGITUDE": "113.9767",
          "STATION_NAME_CHI": "兆麟",
          "STATION_NAME_ENG": "Siu Lun",
          "REFERENCE_ID": "506"
        },
        {
          "ROUTE_ID": "506",
          "DIRECTION": "I",
          "STATION_SEQNO": "2",
          "STATION_ID": "506-D020",
          "STATION_LATITUDE": "22.387783",
          "STATION_LONGITUDE": "113.975189",
          "STATION_NAME_CHI": "友愛邨",
          "STATION_NAME_ENG": "Yau Oi Estate",
          "REFERENCE_ID": "506"
        },
        {
          "ROUTE_ID": "506",
          "DIRECTION": "I",
          "STATION_SEQNO": "3",
          "STATION_ID": "506-D030",
          "STATION_LATITUDE": "22.392125",
          "STATION_LONGITUDE": "113.975128",
          "STATION_NAME_CHI": "輕鐵市中心站",
          "STATION_NAME_ENG": "LR Town Centre Stop",
          "REFERENCE_ID": "506"
        },
        {
          "ROUTE_ID": "506",
          "DIRECTION": "I",
          "STATION_SEQNO": "4",
          "STATION_ID": "506-D040",
          "STATION_LATITUDE": "22.393937",
          "STATION_LONGITUDE": "113.973896",
          "STATION_NAME_CHI": "輕鐵屯門站",
          "STATION_NAME_ENG": "LR Tuen Mun Stop",
          "REFERENCE_ID": "506"
        },
        {
          "ROUTE_ID": "506",
          "DIRECTION": "I",
          "STATION_SEQNO": "5",
          "STATION_ID": "506-D050",
          "STATION_LATITUDE": "22.394687",
          "STATION_LONGITUDE": "113.970746",
          "STATION_NAME_CHI": "輕鐵建安站",
          "STATION_NAME_ENG": "LR Kin On Stop",
          "REFERENCE_ID": "506"
        },
        {
          "ROUTE_ID": "506",
          "DIRECTION": "I",
          "STATION_SEQNO": "6",
          "STATION_ID": "506-D060",
          "STATION_LATITUDE": "22.393382",
          "STATION_LONGITUDE": "113.967707",
          "STATION_NAME_CHI": "輕鐵青雲站",
          "STATION_NAME_ENG": "LR Tsing Wun Stop",
          "REFERENCE_ID": "506"
        },
        {
          "ROUTE_ID": "506",
          "DIRECTION": "I",
          "STATION_SEQNO": "7",
          "STATION_ID": "506-D070",
          "STATION_LATITUDE": "22.391722",
          "STATION_LONGITUDE": "113.967726",
          "STATION_NAME_CHI": "聖彼得堂",
          "STATION_NAME_ENG": "SKH St. Peter's Church",
          "REFERENCE_ID": "506"
        },
        {
          "ROUTE_ID": "506",
          "DIRECTION": "I",
          "STATION_SEQNO": "8",
          "STATION_ID": "506-D080",
          "STATION_LATITUDE": "22.383618",
          "STATION_LONGITUDE": "113.964478",
          "STATION_NAME_CHI": "富健花園",
          "STATION_NAME_ENG": "Glorious Garden",
          "REFERENCE_ID": "506"
        },
        {
          "ROUTE_ID": "506",
          "DIRECTION": "I",
          "STATION_SEQNO": "9",
          "STATION_ID": "506-D090",
          "STATION_LATITUDE": "22.382269",
          "STATION_LONGITUDE": "113.963833",
          "STATION_NAME_CHI": "新屯門中心",
          "STATION_NAME_ENG": "Sun Tuen Mun Centre",
          "REFERENCE_ID": "506"
        },
        {
          "ROUTE_ID": "506",
          "DIRECTION": "I",
          "STATION_SEQNO": "10",
          "STATION_ID": "506-D100",
          "STATION_LATITUDE": "22.377547",
          "STATION_LONGITUDE": "113.961481",
          "STATION_NAME_CHI": "輕鐵蝴蝶站",
          "STATION_NAME_ENG": "LR Butterfly Stop",
          "REFERENCE_ID": "506"
        },
        {
          "ROUTE_ID": "506",
          "DIRECTION": "I",
          "STATION_SEQNO": "11",
          "STATION_ID": "506-D110",
          "STATION_LATITUDE": "22.374219",
          "STATION_LONGITUDE": "113.962106",
          "STATION_NAME_CHI": "蝴蝶邨蝶心樓",
          "STATION_NAME_ENG": "Tip Sum House, Butterfly Estate",
          "REFERENCE_ID": "506"
        },
        {
          "ROUTE_ID": "506",
          "DIRECTION": "I",
          "STATION_SEQNO": "12",
          "STATION_ID": "506-D120",
          "STATION_LATITUDE": "22.373549",
          "STATION_LONGITUDE": "113.964341",
          "STATION_NAME_CHI": "湖景邨湖碧樓",
          "STATION_NAME_ENG": "Wu Pik House, Wu King Estate",
          "REFERENCE_ID": "506"
        },
        {
          "ROUTE_ID": "506",
          "DIRECTION": "I",
          "STATION_SEQNO": "13",
          "STATION_ID": "506-D130",
          "STATION_LATITUDE": "22.373192",
          "STATION_LONGITUDE": "113.966053",
          "STATION_NAME_CHI": "海翠花園",
          "STATION_NAME_ENG": "Pierhead Garden",
          "REFERENCE_ID": "506"
        },
        {
          "ROUTE_ID": "506",
          "DIRECTION": "I",
          "STATION_SEQNO": "14",
          "STATION_ID": "506-D140",
          "STATION_LATITUDE": "22.37259",
          "STATION_LONGITUDE": "113.96699",
          "STATION_NAME_CHI": "屯門碼頭",
          "STATION_NAME_ENG": "Tuen Mun Ferry Pier",
          "REFERENCE_ID": "506"
        },
        {
          "ROUTE_ID": "506",
          "DIRECTION": "O",
          "STATION_SEQNO": "1",
          "STATION_ID": "506-U045",
          "STATION_LATITUDE": "22.384408",
          "STATION_LONGITUDE": "113.965174",
          "STATION_NAME_CHI": "富健花園",
          "STATION_NAME_ENG": "Glorious Garden",
          "REFERENCE_ID": "506-1"
        },
        {
          "ROUTE_ID": "506",
          "DIRECTION": "O",
          "STATION_SEQNO": "2",
          "STATION_ID": "506-U050",
          "STATION_LATITUDE": "22.385399",
          "STATION_LONGITUDE": "113.965222",
          "STATION_NAME_CHI": "輕鐵龍門站",
          "STATION_NAME_ENG": "LR Lung Mun Stop",
          "REFERENCE_ID": "506-1"
        },
        {
          "ROUTE_ID": "506",
          "DIRECTION": "O",
          "STATION_SEQNO": "3",
          "STATION_ID": "506-U060",
          "STATION_LATITUDE": "22.393627",
          "STATION_LONGITUDE": "113.96752",
          "STATION_NAME_CHI": "輕鐵青雲站",
          "STATION_NAME_ENG": "LR Tsing Wun Stop",
          "REFERENCE_ID": "506-1"
        },
        {
          "ROUTE_ID": "506",
          "DIRECTION": "O",
          "STATION_SEQNO": "4",
          "STATION_ID": "506-U070",
          "STATION_LATITUDE": "22.395064",
          "STATION_LONGITUDE": "113.969953",
          "STATION_NAME_CHI": "輕鐵建安站",
          "STATION_NAME_ENG": "LR Kin On Stop",
          "REFERENCE_ID": "506-1"
        },
        {
          "ROUTE_ID": "506",
          "DIRECTION": "O",
          "STATION_SEQNO": "5",
          "STATION_ID": "506-U075",
          "STATION_LATITUDE": "22.394225",
          "STATION_LONGITUDE": "113.973358",
          "STATION_NAME_CHI": "屯門站 ",
          "STATION_NAME_ENG": "Tuen Mun Station ",
          "REFERENCE_ID": "506-1"
        }
      ]
    },
    {
      "ROUTE_ID": "506",
      "ROUTE_NAME_CHI": "富健花園至屯門站",
      "ROUTE_NAME_ENG": "Glorious Garden to Tuen Mun Station",
      "IS_CIRCULAR": "0",
      "LINE_UP": "506_GG_TMS",
      "LINE_DOWN": "",
      "REFERENCE_ID": "506-1",
      "stops": [
        {
          "ROUTE_ID": "506",
          "DIRECTION": "O",
          "STATION_SEQNO": "1",
          "STATION_ID": "506-U010",
          "STATION_LATITUDE": "22.37259",
          "STATION_LONGITUDE": "113.96699",
          "STATION_NAME_CHI": "屯門碼頭",
          "STATION_NAME_ENG": "Tuen Mun Ferry Pier",
          "REFERENCE_ID": "506"
        },
        {
          "ROUTE_ID": "506",
          "DIRECTION": "O",
          "STATION_SEQNO": "2",
          "STATION_ID": "506-U020",
          "STATION_LATITUDE": "22.375834",
          "STATION_LONGITUDE": "113.960628",
          "STATION_NAME_CHI": "美樂花園",
          "STATION_NAME_ENG": "Melody Garden",
          "REFERENCE_ID": "506"
        },
        {
          "ROUTE_ID": "506",
          "DIRECTION": "O",
          "STATION_SEQNO": "3",
          "STATION_ID": "506-U030",
          "STATION_LATITUDE": "22.378364",
          "STATION_LONGITUDE": "113.961965",
          "STATION_NAME_CHI": "輕鐵蝴蝶站",
          "STATION_NAME_ENG": "LR Butterfly Stop",
          "REFERENCE_ID": "506"
        },
        {
          "ROUTE_ID": "506",
          "DIRECTION": "O",
          "STATION_SEQNO": "4",
          "STATION_ID": "506-U040",
          "STATION_LATITUDE": "22.382203",
          "STATION_LONGITUDE": "113.96359",
          "STATION_NAME_CHI": "輕鐵車廠站",
          "STATION_NAME_ENG": "Light Rail Depot Stop",
          "REFERENCE_ID": "506"
        },
        {
          "ROUTE_ID": "506",
          "DIRECTION": "O",
          "STATION_SEQNO": "5",
          "STATION_ID": "506-U050",
          "STATION_LATITUDE": "22.385399",
          "STATION_LONGITUDE": "113.965222",
          "STATION_NAME_CHI": "輕鐵龍門站",
          "STATION_NAME_ENG": "LR Lung Mun Stop",
          "REFERENCE_ID": "506"
        },
        {
          "ROUTE_ID": "506",
          "DIRECTION": "O",
          "STATION_SEQNO": "6",
          "STATION_ID": "506-U060",
          "STATION_LATITUDE": "22.393627",
          "STATION_LONGITUDE": "113.96752",
          "STATION_NAME_CHI": "輕鐵青雲站",
          "STATION_NAME_ENG": "LR Tsing Wun Stop",
          "REFERENCE_ID": "506"
        },
        {
          "ROUTE_ID": "506",
          "DIRECTION": "O",
          "STATION_SEQNO": "7",
          "STATION_ID": "506-U070",
          "STATION_LATITUDE": "22.395064",
          "STATION_LONGITUDE": "113.969953",
          "STATION_NAME_CHI": "輕鐵建安站",
          "STATION_NAME_ENG": "LR Kin On Stop",
          "REFERENCE_ID": "506"
        },
        {
          "ROUTE_ID": "506",
          "DIRECTION": "O",
          "STATION_SEQNO": "8",
          "STATION_ID": "506-U080",
          "STATION_LATITUDE": "22.394117",
          "STATION_LONGITUDE": "113.973992",
          "STATION_NAME_CHI": "港鐵屯門站",
          "STATION_NAME_ENG": "MTR Tuen Mun Station",
          "REFERENCE_ID": "506"
        },
        {
          "ROUTE_ID": "506",
          "DIRECTION": "O",
          "STATION_SEQNO": "9",
          "STATION_ID": "506-U090",
          "STATION_LATITUDE": "22.391352",
          "STATION_LONGITUDE": "113.975474",
          "STATION_NAME_CHI": "屯門市中心",
          "STATION_NAME_ENG": "Tuen Mun Town Centre",
          "REFERENCE_ID": "506"
        },
        {
          "ROUTE_ID": "506",
          "DIRECTION": "O",
          "STATION_SEQNO": "10",
          "STATION_ID": "506-U100",
          "STATION_LATITUDE": "22.387312",
          "STATION_LONGITUDE": "113.975341",
          "STATION_NAME_CHI": "安定邨",
          "STATION_NAME_ENG": "On Ting Estate",
          "REFERENCE_ID": "506"
        },
        {
          "ROUTE_ID": "506",
          "DIRECTION": "O",
          "STATION_SEQNO": "11",
          "STATION_ID": "506-U110",
          "STATION_LATITUDE": "22.382916",
          "STATION_LONGITUDE": "113.976276",
          "STATION_NAME_CHI": "輕鐵三聖站",
          "STATION_NAME_ENG": "LR Sam Shing Stop",
          "REFERENCE_ID": "506"
        },
        {
          "ROUTE_ID": "506",
          "DIRECTION": "O",
          "STATION_SEQNO": "12",
          "STATION_ID": "506-U120",
          "STATION_LATITUDE": "22.38551",
          "STATION_LONGITUDE": "113.9767",
          "STATION_NAME_CHI": "兆麟",
          "STATION_NAME_ENG": "Siu Lun",
          "REFERENCE_ID": "506"
        },
        {
          "ROUTE_ID": "506",
          "DIRECTION": "I",
          "STATION_SEQNO": "1",
          "STATION_ID": "506-D010",
          "STATION_LATITUDE": "22.38551",
          "STATION_LONGITUDE": "113.9767",
          "STATION_NAME_CHI": "兆麟",
          "STATION_NAME_ENG": "Siu Lun",
          "REFERENCE_ID": "506"
        },
        {
          "ROUTE_ID": "506",
          "DIRECTION": "I",
          "STATION_SEQNO": "2",
          "STATION_ID": "506-D020",
          "STATION_LATITUDE": "22.387783",
          "STATION_LONGITUDE": "113.975189",
          "STATION_NAME_CHI": "友愛邨",
          "STATION_NAME_ENG": "Yau Oi Estate",
          "REFERENCE_ID": "506"
        },
        {
          "ROUTE_ID": "506",
          "DIRECTION": "I",
          "STATION_SEQNO": "3",
          "STATION_ID": "506-D030",
          "STATION_LATITUDE": "22.392125",
          "STATION_LONGITUDE": "113.975128",
          "STATION_NAME_CHI": "輕鐵市中心站",
          "STATION_NAME_ENG": "LR Town Centre Stop",
          "REFERENCE_ID": "506"
        },
        {
          "ROUTE_ID": "506",
          "DIRECTION": "I",
          "STATION_SEQNO": "4",
          "STATION_ID": "506-D040",
          "STATION_LATITUDE": "22.393937",
          "STATION_LONGITUDE": "113.973896",
          "STATION_NAME_CHI": "輕鐵屯門站",
          "STATION_NAME_ENG": "LR Tuen Mun Stop",
          "REFERENCE_ID": "506"
        },
        {
          "ROUTE_ID": "506",
          "DIRECTION": "I",
          "STATION_SEQNO": "5",
          "STATION_ID": "506-D050",
          "STATION_LATITUDE": "22.394687",
          "STATION_LONGITUDE": "113.970746",
          "STATION_NAME_CHI": "輕鐵建安站",
          "STATION_NAME_ENG": "LR Kin On Stop",
          "REFERENCE_ID": "506"
        },
        {
          "ROUTE_ID": "506",
          "DIRECTION": "I",
          "STATION_SEQNO": "6",
          "STATION_ID": "506-D060",
          "STATION_LATITUDE": "22.393382",
          "STATION_LONGITUDE": "113.967707",
          "STATION_NAME_CHI": "輕鐵青雲站",
          "STATION_NAME_ENG": "LR Tsing Wun Stop",
          "REFERENCE_ID": "506"
        },
        {
          "ROUTE_ID": "506",
          "DIRECTION": "I",
          "STATION_SEQNO": "7",
          "STATION_ID": "506-D070",
          "STATION_LATITUDE": "22.391722",
          "STATION_LONGITUDE": "113.967726",
          "STATION_NAME_CHI": "聖彼得堂",
          "STATION_NAME_ENG": "SKH St. Peter's Church",
          "REFERENCE_ID": "506"
        },
        {
          "ROUTE_ID": "506",
          "DIRECTION": "I",
          "STATION_SEQNO": "8",
          "STATION_ID": "506-D080",
          "STATION_LATITUDE": "22.383618",
          "STATION_LONGITUDE": "113.964478",
          "STATION_NAME_CHI": "富健花園",
          "STATION_NAME_ENG": "Glorious Garden",
          "REFERENCE_ID": "506"
        },
        {
          "ROUTE_ID": "506",
          "DIRECTION": "I",
          "STATION_SEQNO": "9",
          "STATION_ID": "506-D090",
          "STATION_LATITUDE": "22.382269",
          "STATION_LONGITUDE": "113.963833",
          "STATION_NAME_CHI": "新屯門中心",
          "STATION_NAME_ENG": "Sun Tuen Mun Centre",
          "REFERENCE_ID": "506"
        },
        {
          "ROUTE_ID": "506",
          "DIRECTION": "I",
          "STATION_SEQNO": "10",
          "STATION_ID": "506-D100",
          "STATION_LATITUDE": "22.377547",
          "STATION_LONGITUDE": "113.961481",
          "STATION_NAME_CHI": "輕鐵蝴蝶站",
          "STATION_NAME_ENG": "LR Butterfly Stop",
          "REFERENCE_ID": "506"
        },
        {
          "ROUTE_ID": "506",
          "DIRECTION": "I",
          "STATION_SEQNO": "11",
          "STATION_ID": "506-D110",
          "STATION_LATITUDE": "22.374219",
          "STATION_LONGITUDE": "113.962106",
          "STATION_NAME_CHI": "蝴蝶邨蝶心樓",
          "STATION_NAME_ENG": "Tip Sum House, Butterfly Estate",
          "REFERENCE_ID": "506"
        },
        {
          "ROUTE_ID": "506",
          "DIRECTION": "I",
          "STATION_SEQNO": "12",
          "STATION_ID": "506-D120",
          "STATION_LATITUDE": "22.373549",
          "STATION_LONGITUDE": "113.964341",
          "STATION_NAME_CHI": "湖景邨湖碧樓",
          "STATION_NAME_ENG": "Wu Pik House, Wu King Estate",
          "REFERENCE_ID": "506"
        },
        {
          "ROUTE_ID": "506",
          "DIRECTION": "I",
          "STATION_SEQNO": "13",
          "STATION_ID": "506-D130",
          "STATION_LATITUDE": "22.373192",
          "STATION_LONGITUDE": "113.966053",
          "STATION_NAME_CHI": "海翠花園",
          "STATION_NAME_ENG": "Pierhead Garden",
          "REFERENCE_ID": "506"
        },
        {
          "ROUTE_ID": "506",
          "DIRECTION": "I",
          "STATION_SEQNO": "14",
          "STATION_ID": "506-D140",
          "STATION_LATITUDE": "22.37259",
          "STATION_LONGITUDE": "113.96699",
          "STATION_NAME_CHI": "屯門碼頭",
          "STATION_NAME_ENG": "Tuen Mun Ferry Pier",
          "REFERENCE_ID": "506"
        },
        {
          "ROUTE_ID": "506",
          "DIRECTION": "O",
          "STATION_SEQNO": "1",
          "STATION_ID": "506-U045",
          "STATION_LATITUDE": "22.384408",
          "STATION_LONGITUDE": "113.965174",
          "STATION_NAME_CHI": "富健花園",
          "STATION_NAME_ENG": "Glorious Garden",
          "REFERENCE_ID": "506-1"
        },
        {
          "ROUTE_ID": "506",
          "DIRECTION": "O",
          "STATION_SEQNO": "2",
          "STATION_ID": "506-U050",
          "STATION_LATITUDE": "22.385399",
          "STATION_LONGITUDE": "113.965222",
          "STATION_NAME_CHI": "輕鐵龍門站",
          "STATION_NAME_ENG": "LR Lung Mun Stop",
          "REFERENCE_ID": "506-1"
        },
        {
          "ROUTE_ID": "506",
          "DIRECTION": "O",
          "STATION_SEQNO": "3",
          "STATION_ID": "506-U060",
          "STATION_LATITUDE": "22.393627",
          "STATION_LONGITUDE": "113.96752",
          "STATION_NAME_CHI": "輕鐵青雲站",
          "STATION_NAME_ENG": "LR Tsing Wun Stop",
          "REFERENCE_ID": "506-1"
        },
        {
          "ROUTE_ID": "506",
          "DIRECTION": "O",
          "STATION_SEQNO": "4",
          "STATION_ID": "506-U070",
          "STATION_LATITUDE": "22.395064",
          "STATION_LONGITUDE": "113.969953",
          "STATION_NAME_CHI": "輕鐵建安站",
          "STATION_NAME_ENG": "LR Kin On Stop",
          "REFERENCE_ID": "506-1"
        },
        {
          "ROUTE_ID": "506",
          "DIRECTION": "O",
          "STATION_SEQNO": "5",
          "STATION_ID": "506-U075",
          "STATION_LATITUDE": "22.394225",
          "STATION_LONGITUDE": "113.973358",
          "STATION_NAME_CHI": "屯門站 ",
          "STATION_NAME_ENG": "Tuen Mun Station ",
          "REFERENCE_ID": "506-1"
        }
      ]
    },
    {
      "ROUTE_ID": "K12",
      "ROUTE_NAME_CHI": "大埔墟站至八號花園",
      "ROUTE_NAME_ENG": "Tai Po Market Station to Eightland Garden",
      "IS_CIRCULAR": "0",
      "LINE_UP": "K12_EG",
      "LINE_DOWN": "K12_TPMS",
      "REFERENCE_ID": "K12",
      "stops": [
        {
          "ROUTE_ID": "K12",
          "DIRECTION": "O",
          "STATION_SEQNO": "1",
          "STATION_ID": "K12-U010",
          "STATION_LATITUDE": "22.444414",
          "STATION_LONGITUDE": "114.169471",
          "STATION_NAME_CHI": "大埔墟站",
          "STATION_NAME_ENG": "Tai Po Market Station",
          "REFERENCE_ID": "K12"
        },
        {
          "ROUTE_ID": "K12",
          "DIRECTION": "O",
          "STATION_SEQNO": "2",
          "STATION_ID": "K12-U020",
          "STATION_LATITUDE": "22.450971",
          "STATION_LONGITUDE": "114.169957",
          "STATION_NAME_CHI": "大埔超級城",
          "STATION_NAME_ENG": "Tai Po Mega Mall",
          "REFERENCE_ID": "K12"
        },
        {
          "ROUTE_ID": "K12",
          "DIRECTION": "O",
          "STATION_SEQNO": "3",
          "STATION_ID": "K12-U030",
          "STATION_LATITUDE": "22.452836",
          "STATION_LONGITUDE": "114.166496",
          "STATION_NAME_CHI": "八號花園",
          "STATION_NAME_ENG": "Eightland Garden",
          "REFERENCE_ID": "K12"
        },
        {
          "ROUTE_ID": "K12",
          "DIRECTION": "I",
          "STATION_SEQNO": "1",
          "STATION_ID": "K12-D010",
          "STATION_LATITUDE": "22.452836",
          "STATION_LONGITUDE": "114.166496",
          "STATION_NAME_CHI": "八號花園",
          "STATION_NAME_ENG": "Eightland Garden",
          "REFERENCE_ID": "K12"
        },
        {
          "ROUTE_ID": "K12",
          "DIRECTION": "I",
          "STATION_SEQNO": "2",
          "STATION_ID": "K12-D020",
          "STATION_LATITUDE": "22.451278",
          "STATION_LONGITUDE": "114.170087",
          "STATION_NAME_CHI": "大埔超級城",
          "STATION_NAME_ENG": "Tai Po Mega Mall",
          "REFERENCE_ID": "K12"
        },
        {
          "ROUTE_ID": "K12",
          "DIRECTION": "I",
          "STATION_SEQNO": "3",
          "STATION_ID": "K12-D030",
          "STATION_LATITUDE": "22.443712",
          "STATION_LONGITUDE": "114.16991",
          "STATION_NAME_CHI": "新達廣場",
          "STATION_NAME_ENG": "Uptown Plaza",
          "REFERENCE_ID": "K12"
        },
        {
          "ROUTE_ID": "K12",
          "DIRECTION": "I",
          "STATION_SEQNO": "4",
          "STATION_ID": "K12-D040",
          "STATION_LATITUDE": "22.444414",
          "STATION_LONGITUDE": "114.169471",
          "STATION_NAME_CHI": "大埔墟站",
          "STATION_NAME_ENG": "Tai Po Market Station",
          "REFERENCE_ID": "K12"
        }
      ]
    },
    {
      "ROUTE_ID": "K14",
      "ROUTE_NAME_CHI": "大埔超級城至大埔墟站",
      "ROUTE_NAME_ENG": "Tai Po Mega Mall to Tai Po Market Station",
      "IS_CIRCULAR": "0",
      "LINE_UP": "K14_TPMS",
      "LINE_DOWN": "",
      "REFERENCE_ID": "K14",
      "stops": [
        {
          "ROUTE_ID": "K14",
          "DIRECTION": "O",
          "STATION_SEQNO": "1",
          "STATION_ID": "K14-D010",
          "STATION_LATITUDE": "22.451278",
          "STATION_LONGITUDE": "114.170087",
          "STATION_NAME_CHI": "大埔超級城",
          "STATION_NAME_ENG": "Tai Po Mega Mall",
          "REFERENCE_ID": "K14"
        },
        {
          "ROUTE_ID": "K14",
          "DIRECTION": "O",
          "STATION_SEQNO": "2",
          "STATION_ID": "K14-D020",
          "STATION_LATITUDE": "22.443712",
          "STATION_LONGITUDE": "114.16991",
          "STATION_NAME_CHI": "新達廣場",
          "STATION_NAME_ENG": "Uptown Plaza",
          "REFERENCE_ID": "K14"
        },
        {
          "ROUTE_ID": "K14",
          "DIRECTION": "O",
          "STATION_SEQNO": "3",
          "STATION_ID": "K14-D030",
          "STATION_LATITUDE": "22.444414",
          "STATION_LONGITUDE": "114.169471",
          "STATION_NAME_CHI": "大埔墟站",
          "STATION_NAME_ENG": "Tai Po Market Station",
          "REFERENCE_ID": "K14"
        }
      ]
    },
    {
      "ROUTE_ID": "K17",
      "ROUTE_NAME_CHI": "大埔墟站至富善",
      "ROUTE_NAME_ENG": "Tai Po Market Station to Fu Shin",
      "IS_CIRCULAR": "0",
      "LINE_UP": "K17_FS",
      "LINE_DOWN": "K17_TPMS",
      "REFERENCE_ID": "K17",
      "stops": [
        {
          "ROUTE_ID": "K17",
          "DIRECTION": "O",
          "STATION_SEQNO": "1",
          "STATION_ID": "K17-U010",
          "STATION_LATITUDE": "22.444414",
          "STATION_LONGITUDE": "114.169471",
          "STATION_NAME_CHI": "大埔墟站",
          "STATION_NAME_ENG": "Tai Po Market Station",
          "REFERENCE_ID": "K17"
        },
        {
          "ROUTE_ID": "K17",
          "DIRECTION": "O",
          "STATION_SEQNO": "2",
          "STATION_ID": "K17-U020",
          "STATION_LATITUDE": "22.453021",
          "STATION_LONGITUDE": "114.172331",
          "STATION_NAME_CHI": "大埔中心第五期",
          "STATION_NAME_ENG": "Tai Po Centre Phase 5",
          "REFERENCE_ID": "K17"
        },
        {
          "ROUTE_ID": "K17",
          "DIRECTION": "O",
          "STATION_SEQNO": "3",
          "STATION_ID": "K17-U030",
          "STATION_LATITUDE": "22.454538",
          "STATION_LONGITUDE": "114.174428",
          "STATION_NAME_CHI": "怡雅苑",
          "STATION_NAME_ENG": "Yee Nga Court",
          "REFERENCE_ID": "K17"
        },
        {
          "ROUTE_ID": "K17",
          "DIRECTION": "O",
          "STATION_SEQNO": "4",
          "STATION_ID": "K17-U040",
          "STATION_LATITUDE": "22.454322",
          "STATION_LONGITUDE": "114.174098",
          "STATION_NAME_CHI": "富善",
          "STATION_NAME_ENG": "Fu Shin",
          "REFERENCE_ID": "K17"
        },
        {
          "ROUTE_ID": "K17",
          "DIRECTION": "I",
          "STATION_SEQNO": "1",
          "STATION_ID": "K17-D010",
          "STATION_LATITUDE": "22.454322",
          "STATION_LONGITUDE": "114.174098",
          "STATION_NAME_CHI": "富善",
          "STATION_NAME_ENG": "Fu Shin",
          "REFERENCE_ID": "K17"
        },
        {
          "ROUTE_ID": "K17",
          "DIRECTION": "I",
          "STATION_SEQNO": "2",
          "STATION_ID": "K17-D020",
          "STATION_LATITUDE": "22.443712",
          "STATION_LONGITUDE": "114.16991",
          "STATION_NAME_CHI": "新達廣場",
          "STATION_NAME_ENG": "Uptown Plaza",
          "REFERENCE_ID": "K17"
        },
        {
          "ROUTE_ID": "K17",
          "DIRECTION": "I",
          "STATION_SEQNO": "3",
          "STATION_ID": "K17-D030",
          "STATION_LATITUDE": "22.444414",
          "STATION_LONGITUDE": "114.169471",
          "STATION_NAME_CHI": "大埔墟站",
          "STATION_NAME_ENG": "Tai Po Market Station",
          "REFERENCE_ID": "K17"
        }
      ]
    },
    {
      "ROUTE_ID": "K18",
      "ROUTE_NAME_CHI": "大埔墟站至廣福",
      "ROUTE_NAME_ENG": "Tai Po Market Station to Kwong Fuk",
      "IS_CIRCULAR": "0",
      "LINE_UP": "K18_KF",
      "LINE_DOWN": "K18_TPMS",
      "REFERENCE_ID": "K18",
      "stops": [
        {
          "ROUTE_ID": "K18",
          "DIRECTION": "O",
          "STATION_SEQNO": "1",
          "STATION_ID": "K18-U010",
          "STATION_LATITUDE": "22.444414",
          "STATION_LONGITUDE": "114.169471",
          "STATION_NAME_CHI": "大埔墟站",
          "STATION_NAME_ENG": "Tai Po Market Station",
          "REFERENCE_ID": "K18"
        },
        {
          "ROUTE_ID": "K18",
          "DIRECTION": "O",
          "STATION_SEQNO": "2",
          "STATION_ID": "K18-U020",
          "STATION_LATITUDE": "22.447531",
          "STATION_LONGITUDE": "114.17473",
          "STATION_NAME_CHI": "宏福苑",
          "STATION_NAME_ENG": "Wang Fuk Court",
          "REFERENCE_ID": "K18"
        },
        {
          "ROUTE_ID": "K18",
          "DIRECTION": "O",
          "STATION_SEQNO": "3",
          "STATION_ID": "K18-U030",
          "STATION_LATITUDE": "22.4487",
          "STATION_LONGITUDE": "114.174398",
          "STATION_NAME_CHI": "廣福",
          "STATION_NAME_ENG": "Kwong Fuk",
          "REFERENCE_ID": "K18"
        },
        {
          "ROUTE_ID": "K18",
          "DIRECTION": "I",
          "STATION_SEQNO": "1",
          "STATION_ID": "K18-D010",
          "STATION_LATITUDE": "22.4487",
          "STATION_LONGITUDE": "114.174398",
          "STATION_NAME_CHI": "廣福",
          "STATION_NAME_ENG": "Kwong Fuk",
          "REFERENCE_ID": "K18"
        },
        {
          "ROUTE_ID": "K18",
          "DIRECTION": "I",
          "STATION_SEQNO": "2",
          "STATION_ID": "K18-D020",
          "STATION_LATITUDE": "22.443712",
          "STATION_LONGITUDE": "114.16991",
          "STATION_NAME_CHI": "新達廣場",
          "STATION_NAME_ENG": "Uptown Plaza",
          "REFERENCE_ID": "K18"
        },
        {
          "ROUTE_ID": "K18",
          "DIRECTION": "I",
          "STATION_SEQNO": "3",
          "STATION_ID": "K18-D030",
          "STATION_LATITUDE": "22.444414",
          "STATION_LONGITUDE": "114.169471",
          "STATION_NAME_CHI": "大埔墟站",
          "STATION_NAME_ENG": "Tai Po Market Station",
          "REFERENCE_ID": "K18"
        }
      ]
    },
    {
      "ROUTE_ID": "K51",
      "ROUTE_NAME_CHI": "富泰至大欖",
      "ROUTE_NAME_ENG": "Fu Tai to Tai Lam",
      "IS_CIRCULAR": "0",
      "LINE_UP": "K51_TL",
      "LINE_DOWN": "K51_FT",
      "REFERENCE_ID": "K51",
      "stops": [
        {
          "ROUTE_ID": "K51",
          "DIRECTION": "O",
          "STATION_SEQNO": "1",
          "STATION_ID": "K51-U010",
          "STATION_LATITUDE": "22.413286",
          "STATION_LONGITUDE": "113.982895",
          "STATION_NAME_CHI": "富泰",
          "STATION_NAME_ENG": "Fu Tai",
          "REFERENCE_ID": "K51"
        },
        {
          "ROUTE_ID": "K51",
          "DIRECTION": "O",
          "STATION_SEQNO": "2",
          "STATION_ID": "K51-U020",
          "STATION_LATITUDE": "22.412025",
          "STATION_LONGITUDE": "113.983771",
          "STATION_NAME_CHI": "聚康山莊",
          "STATION_NAME_ENG": "Beneville",
          "REFERENCE_ID": "K51"
        },
        {
          "ROUTE_ID": "K51",
          "DIRECTION": "O",
          "STATION_SEQNO": "3",
          "STATION_ID": "K51-U030",
          "STATION_LATITUDE": "22.41059",
          "STATION_LONGITUDE": "113.982387",
          "STATION_NAME_CHI": "嶺南大學",
          "STATION_NAME_ENG": "Lingnan University",
          "REFERENCE_ID": "K51"
        },
        {
          "ROUTE_ID": "K51",
          "DIRECTION": "O",
          "STATION_SEQNO": "4",
          "STATION_ID": "K51-U040",
          "STATION_LATITUDE": "22.408575",
          "STATION_LONGITUDE": "113.980046",
          "STATION_NAME_CHI": "彩暉花園",
          "STATION_NAME_ENG": "Brilliant Garden",
          "REFERENCE_ID": "K51"
        },
        {
          "ROUTE_ID": "K51",
          "DIRECTION": "O",
          "STATION_SEQNO": "5",
          "STATION_ID": "K51-U050",
          "STATION_LATITUDE": "22.410247",
          "STATION_LONGITUDE": "113.978583",
          "STATION_NAME_CHI": "港鐵兆康站 (南) (輕鐵兆康站)",
          "STATION_NAME_ENG": "MTR Siu Hong Station (South) (LR Siu Hong Stop)",
          "REFERENCE_ID": "K51"
        },
        {
          "ROUTE_ID": "K51",
          "DIRECTION": "O",
          "STATION_SEQNO": "6",
          "STATION_ID": "K51-U060",
          "STATION_LATITUDE": "22.40205",
          "STATION_LONGITUDE": "113.9776",
          "STATION_NAME_CHI": "井財街",
          "STATION_NAME_ENG": "Tseng Choi Street",
          "REFERENCE_ID": "K51"
        },
        {
          "ROUTE_ID": "K51",
          "DIRECTION": "O",
          "STATION_SEQNO": "7",
          "STATION_ID": "K51-U070",
          "STATION_LATITUDE": "22.39834",
          "STATION_LONGITUDE": "113.9752",
          "STATION_NAME_CHI": "雅都商場",
          "STATION_NAME_ENG": "ACME Shopping Arcade",
          "REFERENCE_ID": "K51"
        },
        {
          "ROUTE_ID": "K51",
          "DIRECTION": "O",
          "STATION_SEQNO": "8",
          "STATION_ID": "K51-U080",
          "STATION_LATITUDE": "22.39494",
          "STATION_LONGITUDE": "113.9746",
          "STATION_NAME_CHI": "德政圍 (港鐵屯門站)",
          "STATION_NAME_ENG": "Tak Ching Court (MTR Tuen Mun Station)",
          "REFERENCE_ID": "K51"
        },
        {
          "ROUTE_ID": "K51",
          "DIRECTION": "O",
          "STATION_SEQNO": "9",
          "STATION_ID": "K51-U090",
          "STATION_LATITUDE": "22.39153",
          "STATION_LONGITUDE": "113.9755",
          "STATION_NAME_CHI": "屯門市中心 (輕鐵市中心站)",
          "STATION_NAME_ENG": "Tuen Mun Town Centre (LR Town Centre Stop)",
          "REFERENCE_ID": "K51"
        },
        {
          "ROUTE_ID": "K51",
          "DIRECTION": "O",
          "STATION_SEQNO": "10",
          "STATION_ID": "K51-U100",
          "STATION_LATITUDE": "22.3906",
          "STATION_LONGITUDE": "113.9788",
          "STATION_NAME_CHI": "屯門官立中學",
          "STATION_NAME_ENG": "Tuen Mun Government Secondary School",
          "REFERENCE_ID": "K51"
        },
        {
          "ROUTE_ID": "K51",
          "DIRECTION": "O",
          "STATION_SEQNO": "11",
          "STATION_ID": "K51-U110",
          "STATION_LATITUDE": "22.38771",
          "STATION_LONGITUDE": "113.9807",
          "STATION_NAME_CHI": "恒順園",
          "STATION_NAME_ENG": "Handsome Court",
          "REFERENCE_ID": "K51"
        },
        {
          "ROUTE_ID": "K51",
          "DIRECTION": "O",
          "STATION_SEQNO": "12",
          "STATION_ID": "K51-U120",
          "STATION_LATITUDE": "22.38519",
          "STATION_LONGITUDE": "113.981",
          "STATION_NAME_CHI": "恒豐園",
          "STATION_NAME_ENG": "Harvest Garden",
          "REFERENCE_ID": "K51"
        },
        {
          "ROUTE_ID": "K51",
          "DIRECTION": "O",
          "STATION_SEQNO": "13",
          "STATION_ID": "K51-U130",
          "STATION_LATITUDE": "22.381748",
          "STATION_LONGITUDE": "113.978862",
          "STATION_NAME_CHI": "三聖邨",
          "STATION_NAME_ENG": "Sam Shing Estate",
          "REFERENCE_ID": "K51"
        },
        {
          "ROUTE_ID": "K51",
          "DIRECTION": "O",
          "STATION_SEQNO": "14",
          "STATION_ID": "K51-U140",
          "STATION_LATITUDE": "22.378898",
          "STATION_LONGITUDE": "113.980751",
          "STATION_NAME_CHI": "青山灣",
          "STATION_NAME_ENG": "Castle Peak Beach",
          "REFERENCE_ID": "K51"
        },
        {
          "ROUTE_ID": "K51",
          "DIRECTION": "O",
          "STATION_SEQNO": "15",
          "STATION_ID": "K51-U150",
          "STATION_LATITUDE": "22.377938",
          "STATION_LONGITUDE": "113.983475",
          "STATION_NAME_CHI": "海景花園",
          "STATION_NAME_ENG": "Seaview Garden",
          "REFERENCE_ID": "K51"
        },
        {
          "ROUTE_ID": "K51",
          "DIRECTION": "O",
          "STATION_SEQNO": "16",
          "STATION_ID": "K51-U160",
          "STATION_LATITUDE": "22.374926",
          "STATION_LONGITUDE": "113.986745",
          "STATION_NAME_CHI": "咖啡灣",
          "STATION_NAME_ENG": "Cafeteria Beach",
          "REFERENCE_ID": "K51"
        },
        {
          "ROUTE_ID": "K51",
          "DIRECTION": "O",
          "STATION_SEQNO": "17",
          "STATION_ID": "K51-U170",
          "STATION_LATITUDE": "22.373784",
          "STATION_LONGITUDE": "113.990756",
          "STATION_NAME_CHI": "黃金泳灘",
          "STATION_NAME_ENG": "Golden Beach",
          "REFERENCE_ID": "K51"
        },
        {
          "ROUTE_ID": "K51",
          "DIRECTION": "O",
          "STATION_SEQNO": "18",
          "STATION_ID": "K51-U180",
          "STATION_LATITUDE": "22.372025",
          "STATION_LONGITUDE": "113.993574",
          "STATION_NAME_CHI": "香港黃金海岸",
          "STATION_NAME_ENG": "Hong Kong Gold Coast",
          "REFERENCE_ID": "K51"
        },
        {
          "ROUTE_ID": "K51",
          "DIRECTION": "O",
          "STATION_SEQNO": "19",
          "STATION_ID": "K51-U190",
          "STATION_LATITUDE": "22.36945",
          "STATION_LONGITUDE": "113.9954",
          "STATION_NAME_CHI": "嘉禾里村",
          "STATION_NAME_ENG": "Kar Wo Lei Tsuen",
          "REFERENCE_ID": "K51"
        },
        {
          "ROUTE_ID": "K51",
          "DIRECTION": "O",
          "STATION_SEQNO": "20",
          "STATION_ID": "K51-U200",
          "STATION_LATITUDE": "22.36817",
          "STATION_LONGITUDE": "113.9991",
          "STATION_NAME_CHI": "小秀村",
          "STATION_NAME_ENG": "Siu Sau Tsuen",
          "REFERENCE_ID": "K51"
        },
        {
          "ROUTE_ID": "K51",
          "DIRECTION": "O",
          "STATION_SEQNO": "21",
          "STATION_ID": "K51-U210",
          "STATION_LATITUDE": "22.36627",
          "STATION_LONGITUDE": "114.0033",
          "STATION_NAME_CHI": "愛琴灣",
          "STATION_NAME_ENG": "The Aegean",
          "REFERENCE_ID": "K51"
        },
        {
          "ROUTE_ID": "K51",
          "DIRECTION": "O",
          "STATION_SEQNO": "22",
          "STATION_ID": "K51-U220",
          "STATION_LATITUDE": "22.36638",
          "STATION_LONGITUDE": "114.0063",
          "STATION_NAME_CHI": "小欖新村",
          "STATION_NAME_ENG": "Siu Lam San Tsuen",
          "REFERENCE_ID": "K51"
        },
        {
          "ROUTE_ID": "K51",
          "DIRECTION": "O",
          "STATION_SEQNO": "23",
          "STATION_ID": "K51-U230",
          "STATION_LATITUDE": "22.3663",
          "STATION_LONGITUDE": "114.0113",
          "STATION_NAME_CHI": "小欖村",
          "STATION_NAME_ENG": "Siu Lam Tsuen",
          "REFERENCE_ID": "K51"
        },
        {
          "ROUTE_ID": "K51",
          "DIRECTION": "O",
          "STATION_SEQNO": "24",
          "STATION_ID": "K51-U240",
          "STATION_LATITUDE": "22.36497",
          "STATION_LONGITUDE": "114.0133",
          "STATION_NAME_CHI": "小欖澄麗路",
          "STATION_NAME_ENG": "Ching Lai Road Siu Lam",
          "REFERENCE_ID": "K51"
        },
        {
          "ROUTE_ID": "K51",
          "DIRECTION": "O",
          "STATION_SEQNO": "25",
          "STATION_ID": "K51-U250",
          "STATION_LATITUDE": "22.362495",
          "STATION_LONGITUDE": "114.019113",
          "STATION_NAME_CHI": "大欖",
          "STATION_NAME_ENG": "Tai Lam",
          "REFERENCE_ID": "K51"
        },
        {
          "ROUTE_ID": "K51",
          "DIRECTION": "I",
          "STATION_SEQNO": "1",
          "STATION_ID": "K51-D010",
          "STATION_LATITUDE": "22.362495",
          "STATION_LONGITUDE": "114.019113",
          "STATION_NAME_CHI": "大欖",
          "STATION_NAME_ENG": "Tai Lam",
          "REFERENCE_ID": "K51"
        },
        {
          "ROUTE_ID": "K51",
          "DIRECTION": "I",
          "STATION_SEQNO": "2",
          "STATION_ID": "K51-D020",
          "STATION_LATITUDE": "22.364165",
          "STATION_LONGITUDE": "114.014994",
          "STATION_NAME_CHI": "小欖",
          "STATION_NAME_ENG": "Siu Lam",
          "REFERENCE_ID": "K51"
        },
        {
          "ROUTE_ID": "K51",
          "DIRECTION": "I",
          "STATION_SEQNO": "3",
          "STATION_ID": "K51-D030",
          "STATION_LATITUDE": "22.365696",
          "STATION_LONGITUDE": "114.01244",
          "STATION_NAME_CHI": "小欖澄麗路",
          "STATION_NAME_ENG": "Ching Lai Road Siu Lam",
          "REFERENCE_ID": "K51"
        },
        {
          "ROUTE_ID": "K51",
          "DIRECTION": "I",
          "STATION_SEQNO": "4",
          "STATION_ID": "K51-D040",
          "STATION_LATITUDE": "22.366338",
          "STATION_LONGITUDE": "114.00949",
          "STATION_NAME_CHI": "小欖村",
          "STATION_NAME_ENG": "Siu Lam Tsuen",
          "REFERENCE_ID": "K51"
        },
        {
          "ROUTE_ID": "K51",
          "DIRECTION": "I",
          "STATION_SEQNO": "5",
          "STATION_ID": "K51-D050",
          "STATION_LATITUDE": "22.366102",
          "STATION_LONGITUDE": "114.005524",
          "STATION_NAME_CHI": "小欖新村",
          "STATION_NAME_ENG": "Siu Lam San Tsuen",
          "REFERENCE_ID": "K51"
        },
        {
          "ROUTE_ID": "K51",
          "DIRECTION": "I",
          "STATION_SEQNO": "6",
          "STATION_ID": "K51-D060",
          "STATION_LATITUDE": "22.366573",
          "STATION_LONGITUDE": "114.001616",
          "STATION_NAME_CHI": "愛琴灣",
          "STATION_NAME_ENG": "The Aegean",
          "REFERENCE_ID": "K51"
        },
        {
          "ROUTE_ID": "K51",
          "DIRECTION": "I",
          "STATION_SEQNO": "7",
          "STATION_ID": "K51-D070",
          "STATION_LATITUDE": "22.368003",
          "STATION_LONGITUDE": "113.999085",
          "STATION_NAME_CHI": "小秀上村",
          "STATION_NAME_ENG": "Siu Sau Sheung Tsuen",
          "REFERENCE_ID": "K51"
        },
        {
          "ROUTE_ID": "K51",
          "DIRECTION": "I",
          "STATION_SEQNO": "8",
          "STATION_ID": "K51-D080",
          "STATION_LATITUDE": "22.368035",
          "STATION_LONGITUDE": "113.996264",
          "STATION_NAME_CHI": "龍珠島",
          "STATION_NAME_ENG": "Pearl Island",
          "REFERENCE_ID": "K51"
        },
        {
          "ROUTE_ID": "K51",
          "DIRECTION": "I",
          "STATION_SEQNO": "9",
          "STATION_ID": "K51-D090",
          "STATION_LATITUDE": "22.371285",
          "STATION_LONGITUDE": "113.993882",
          "STATION_NAME_CHI": "香港黃金海岸",
          "STATION_NAME_ENG": "Hong Kong Gold Coast",
          "REFERENCE_ID": "K51"
        },
        {
          "ROUTE_ID": "K51",
          "DIRECTION": "I",
          "STATION_SEQNO": "10",
          "STATION_ID": "K51-D100",
          "STATION_LATITUDE": "22.373628",
          "STATION_LONGITUDE": "113.991213",
          "STATION_NAME_CHI": "黃金泳灘",
          "STATION_NAME_ENG": "Golden Beach",
          "REFERENCE_ID": "K51"
        },
        {
          "ROUTE_ID": "K51",
          "DIRECTION": "I",
          "STATION_SEQNO": "11",
          "STATION_ID": "K51-D110",
          "STATION_LATITUDE": "22.3759",
          "STATION_LONGITUDE": "113.985635",
          "STATION_NAME_CHI": "咖啡灣",
          "STATION_NAME_ENG": "Cafeteria Beach",
          "REFERENCE_ID": "K51"
        },
        {
          "ROUTE_ID": "K51",
          "DIRECTION": "I",
          "STATION_SEQNO": "12",
          "STATION_ID": "K51-D120",
          "STATION_LATITUDE": "22.377927",
          "STATION_LONGITUDE": "113.983242",
          "STATION_NAME_CHI": "碧翠花園",
          "STATION_NAME_ENG": "Bayview Terrace",
          "REFERENCE_ID": "K51"
        },
        {
          "ROUTE_ID": "K51",
          "DIRECTION": "I",
          "STATION_SEQNO": "13",
          "STATION_ID": "K51-D130",
          "STATION_LATITUDE": "22.378957",
          "STATION_LONGITUDE": "113.980602",
          "STATION_NAME_CHI": "青山灣碼頭",
          "STATION_NAME_ENG": "Castle Peak Bay Pier",
          "REFERENCE_ID": "K51"
        },
        {
          "ROUTE_ID": "K51",
          "DIRECTION": "I",
          "STATION_SEQNO": "14",
          "STATION_ID": "K51-D140",
          "STATION_LATITUDE": "22.381214",
          "STATION_LONGITUDE": "113.979092",
          "STATION_NAME_CHI": "三聖邨",
          "STATION_NAME_ENG": "Sam Shing Estate",
          "REFERENCE_ID": "K51"
        },
        {
          "ROUTE_ID": "K51",
          "DIRECTION": "I",
          "STATION_SEQNO": "15",
          "STATION_ID": "K51-D150",
          "STATION_LATITUDE": "22.382064",
          "STATION_LONGITUDE": "113.977151",
          "STATION_NAME_CHI": "恆福花園 (輕鐵三聖站)",
          "STATION_NAME_ENG": "Hanford Garden (LR Sam Shing Stop)",
          "REFERENCE_ID": "K51"
        },
        {
          "ROUTE_ID": "K51",
          "DIRECTION": "I",
          "STATION_SEQNO": "16",
          "STATION_ID": "K51-D160",
          "STATION_LATITUDE": "22.383774",
          "STATION_LONGITUDE": "113.97939",
          "STATION_NAME_CHI": "胡陳金枝中學",
          "STATION_NAME_ENG": "Mrs Aw Boon Haw Secondary School",
          "REFERENCE_ID": "K51"
        },
        {
          "ROUTE_ID": "K51",
          "DIRECTION": "I",
          "STATION_SEQNO": "17",
          "STATION_ID": "K51-D170",
          "STATION_LATITUDE": "22.384602",
          "STATION_LONGITUDE": "113.980638",
          "STATION_NAME_CHI": "青善遊樂場",
          "STATION_NAME_ENG": "Tsing Sin Playground",
          "REFERENCE_ID": "K51"
        },
        {
          "ROUTE_ID": "K51",
          "DIRECTION": "I",
          "STATION_SEQNO": "18",
          "STATION_ID": "K51-D180",
          "STATION_LATITUDE": "22.387355",
          "STATION_LONGITUDE": "113.98069",
          "STATION_NAME_CHI": "置樂花園",
          "STATION_NAME_ENG": "Chi Lok Fa Yuen",
          "REFERENCE_ID": "K51"
        },
        {
          "ROUTE_ID": "K51",
          "DIRECTION": "I",
          "STATION_SEQNO": "19",
          "STATION_ID": "K51-D190",
          "STATION_LATITUDE": "22.390433",
          "STATION_LONGITUDE": "113.978805",
          "STATION_NAME_CHI": "屯門官立中學",
          "STATION_NAME_ENG": "Tuen Mun Government Secondary School",
          "REFERENCE_ID": "K51"
        },
        {
          "ROUTE_ID": "K51",
          "DIRECTION": "I",
          "STATION_SEQNO": "20",
          "STATION_ID": "K51-D200",
          "STATION_LATITUDE": "22.392116",
          "STATION_LONGITUDE": "113.975082",
          "STATION_NAME_CHI": "輕鐵市中心站",
          "STATION_NAME_ENG": "LR Town Centre Stop",
          "REFERENCE_ID": "K51"
        },
        {
          "ROUTE_ID": "K51",
          "DIRECTION": "I",
          "STATION_SEQNO": "21",
          "STATION_ID": "K51-D210",
          "STATION_LATITUDE": "22.395021",
          "STATION_LONGITUDE": "113.974444",
          "STATION_NAME_CHI": "港鐵屯門站 (輕鐵屯門站)",
          "STATION_NAME_ENG": "MTR Tuen Mun Station (LR Tuen Mun Stop)",
          "REFERENCE_ID": "K51"
        },
        {
          "ROUTE_ID": "K51",
          "DIRECTION": "I",
          "STATION_SEQNO": "22",
          "STATION_ID": "K51-D220",
          "STATION_LATITUDE": "22.397311",
          "STATION_LONGITUDE": "113.974853",
          "STATION_NAME_CHI": "聖公會聖西門呂明才中學",
          "STATION_NAME_ENG": "SKH St. Simon's Lui Ming Choi Secondary School",
          "REFERENCE_ID": "K51"
        },
        {
          "ROUTE_ID": "K51",
          "DIRECTION": "I",
          "STATION_SEQNO": "23",
          "STATION_ID": "K51-D230",
          "STATION_LATITUDE": "22.40334",
          "STATION_LONGITUDE": "113.979247",
          "STATION_NAME_CHI": "景峰花園",
          "STATION_NAME_ENG": "Prime View Garden",
          "REFERENCE_ID": "K51"
        },
        {
          "ROUTE_ID": "K51",
          "DIRECTION": "I",
          "STATION_SEQNO": "24",
          "STATION_ID": "K51-D240",
          "STATION_LATITUDE": "22.407254",
          "STATION_LONGITUDE": "113.978641",
          "STATION_NAME_CHI": "輕鐵鳳地站",
          "STATION_NAME_ENG": "LR Fung Tei Stop",
          "REFERENCE_ID": "K51"
        },
        {
          "ROUTE_ID": "K51",
          "DIRECTION": "I",
          "STATION_SEQNO": "25",
          "STATION_ID": "K51-D250",
          "STATION_LATITUDE": "22.410378",
          "STATION_LONGITUDE": "113.978607",
          "STATION_NAME_CHI": "港鐵兆康站 (南) (輕鐵兆康站)",
          "STATION_NAME_ENG": "MTR Siu Hong Station (South) (LR Siu Hong Stop)",
          "REFERENCE_ID": "K51"
        },
        {
          "ROUTE_ID": "K51",
          "DIRECTION": "I",
          "STATION_SEQNO": "26",
          "STATION_ID": "K51-D260",
          "STATION_LATITUDE": "22.408779",
          "STATION_LONGITUDE": "113.980397",
          "STATION_NAME_CHI": "彩暉花園",
          "STATION_NAME_ENG": "Brilliant Garden",
          "REFERENCE_ID": "K51"
        },
        {
          "ROUTE_ID": "K51",
          "DIRECTION": "I",
          "STATION_SEQNO": "27",
          "STATION_ID": "K51-D270",
          "STATION_LATITUDE": "22.410694",
          "STATION_LONGITUDE": "113.982212",
          "STATION_NAME_CHI": "嶺南大學",
          "STATION_NAME_ENG": "Lingnan University",
          "REFERENCE_ID": "K51"
        },
        {
          "ROUTE_ID": "K51",
          "DIRECTION": "I",
          "STATION_SEQNO": "28",
          "STATION_ID": "K51-D280",
          "STATION_LATITUDE": "22.411927",
          "STATION_LONGITUDE": "113.983128",
          "STATION_NAME_CHI": "倚嶺南庭",
          "STATION_NAME_ENG": "South Hillcrest",
          "REFERENCE_ID": "K51"
        },
        {
          "ROUTE_ID": "K51",
          "DIRECTION": "I",
          "STATION_SEQNO": "29",
          "STATION_ID": "K51-D290",
          "STATION_LATITUDE": "22.413286",
          "STATION_LONGITUDE": "113.982895",
          "STATION_NAME_CHI": "富泰",
          "STATION_NAME_ENG": "Fu Tai",
          "REFERENCE_ID": "K51"
        },
        {
          "ROUTE_ID": "K51",
          "DIRECTION": "O",
          "STATION_SEQNO": "1",
          "STATION_ID": "K51-U010",
          "STATION_LATITUDE": "22.413286",
          "STATION_LONGITUDE": "113.982895",
          "STATION_NAME_CHI": "富泰",
          "STATION_NAME_ENG": "Fu Tai",
          "REFERENCE_ID": "K51-1"
        },
        {
          "ROUTE_ID": "K51",
          "DIRECTION": "O",
          "STATION_SEQNO": "2",
          "STATION_ID": "K51-U020",
          "STATION_LATITUDE": "22.412025",
          "STATION_LONGITUDE": "113.983771",
          "STATION_NAME_CHI": "聚康山莊",
          "STATION_NAME_ENG": "Beneville",
          "REFERENCE_ID": "K51-1"
        },
        {
          "ROUTE_ID": "K51",
          "DIRECTION": "O",
          "STATION_SEQNO": "3",
          "STATION_ID": "K51-U030",
          "STATION_LATITUDE": "22.41059",
          "STATION_LONGITUDE": "113.982387",
          "STATION_NAME_CHI": "嶺南大學",
          "STATION_NAME_ENG": "Lingnan University",
          "REFERENCE_ID": "K51-1"
        },
        {
          "ROUTE_ID": "K51",
          "DIRECTION": "O",
          "STATION_SEQNO": "4",
          "STATION_ID": "K51-U040",
          "STATION_LATITUDE": "22.408575",
          "STATION_LONGITUDE": "113.980046",
          "STATION_NAME_CHI": "彩暉花園",
          "STATION_NAME_ENG": "Brilliant Garden",
          "REFERENCE_ID": "K51-1"
        },
        {
          "ROUTE_ID": "K51",
          "DIRECTION": "O",
          "STATION_SEQNO": "5",
          "STATION_ID": "K51-U050",
          "STATION_LATITUDE": "22.410247",
          "STATION_LONGITUDE": "113.978583",
          "STATION_NAME_CHI": "港鐵兆康站 (南)",
          "STATION_NAME_ENG": "MTR Siu Hong Station (South)",
          "REFERENCE_ID": "K51-1"
        },
        {
          "ROUTE_ID": "K51",
          "DIRECTION": "O",
          "STATION_SEQNO": "1",
          "STATION_ID": "K51-D250",
          "STATION_LATITUDE": "22.410378",
          "STATION_LONGITUDE": "113.978607",
          "STATION_NAME_CHI": "港鐵兆康站 (南) ",
          "STATION_NAME_ENG": "MTR Siu Hong Station (South) ",
          "REFERENCE_ID": "K51-2"
        },
        {
          "ROUTE_ID": "K51",
          "DIRECTION": "O",
          "STATION_SEQNO": "2",
          "STATION_ID": "K51-D260",
          "STATION_LATITUDE": "22.408779",
          "STATION_LONGITUDE": "113.980397",
          "STATION_NAME_CHI": "彩暉花園",
          "STATION_NAME_ENG": "Brilliant Garden",
          "REFERENCE_ID": "K51-2"
        },
        {
          "ROUTE_ID": "K51",
          "DIRECTION": "O",
          "STATION_SEQNO": "3",
          "STATION_ID": "K51-D270",
          "STATION_LATITUDE": "22.410694",
          "STATION_LONGITUDE": "113.982212",
          "STATION_NAME_CHI": "嶺南大學",
          "STATION_NAME_ENG": "Lingnan University",
          "REFERENCE_ID": "K51-2"
        },
        {
          "ROUTE_ID": "K51",
          "DIRECTION": "O",
          "STATION_SEQNO": "4",
          "STATION_ID": "K51-D280",
          "STATION_LATITUDE": "22.411927",
          "STATION_LONGITUDE": "113.983128",
          "STATION_NAME_CHI": "倚嶺南庭",
          "STATION_NAME_ENG": "South Hillcrest",
          "REFERENCE_ID": "K51-2"
        },
        {
          "ROUTE_ID": "K51",
          "DIRECTION": "O",
          "STATION_SEQNO": "5",
          "STATION_ID": "K51-D290",
          "STATION_LATITUDE": "22.413286",
          "STATION_LONGITUDE": "113.982895",
          "STATION_NAME_CHI": "富泰",
          "STATION_NAME_ENG": "Fu Tai",
          "REFERENCE_ID": "K51-2"
        }
      ]
    },
    {
      "ROUTE_ID": "K51A",
      "ROUTE_NAME_CHI": "富泰至掃管笏",
      "ROUTE_NAME_ENG": "Fu Tai to So Kwun Wat",
      "IS_CIRCULAR": "0",
      "LINE_UP": "K51A_SKWT",
      "LINE_DOWN": "K51A_FT",
      "REFERENCE_ID": "K51A",
      "stops": [
        {
          "ROUTE_ID": "K51A",
          "DIRECTION": "O",
          "STATION_SEQNO": "1",
          "STATION_ID": "K51A-U010",
          "STATION_LATITUDE": "22.413286",
          "STATION_LONGITUDE": "113.982895",
          "STATION_NAME_CHI": "富泰",
          "STATION_NAME_ENG": "Fu Tai",
          "REFERENCE_ID": "K51A"
        },
        {
          "ROUTE_ID": "K51A",
          "DIRECTION": "O",
          "STATION_SEQNO": "2",
          "STATION_ID": "K51A-U020",
          "STATION_LATITUDE": "22.412025",
          "STATION_LONGITUDE": "113.983771",
          "STATION_NAME_CHI": "聚康山莊",
          "STATION_NAME_ENG": "Beneville",
          "REFERENCE_ID": "K51A"
        },
        {
          "ROUTE_ID": "K51A",
          "DIRECTION": "O",
          "STATION_SEQNO": "3",
          "STATION_ID": "K51A-U030",
          "STATION_LATITUDE": "22.41059",
          "STATION_LONGITUDE": "113.982387",
          "STATION_NAME_CHI": "嶺南大學",
          "STATION_NAME_ENG": "Lingnan University",
          "REFERENCE_ID": "K51A"
        },
        {
          "ROUTE_ID": "K51A",
          "DIRECTION": "O",
          "STATION_SEQNO": "4",
          "STATION_ID": "K51A-U040",
          "STATION_LATITUDE": "22.408575",
          "STATION_LONGITUDE": "113.980046",
          "STATION_NAME_CHI": "彩暉花園",
          "STATION_NAME_ENG": "Brilliant Garden",
          "REFERENCE_ID": "K51A"
        },
        {
          "ROUTE_ID": "K51A",
          "DIRECTION": "O",
          "STATION_SEQNO": "5",
          "STATION_ID": "K51A-U050",
          "STATION_LATITUDE": "22.410247",
          "STATION_LONGITUDE": "113.978583",
          "STATION_NAME_CHI": "港鐵兆康站 (南) (輕鐵兆康站)",
          "STATION_NAME_ENG": "MTR Siu Hong Station (South) (LR Siu Hong Stop)",
          "REFERENCE_ID": "K51A"
        },
        {
          "ROUTE_ID": "K51A",
          "DIRECTION": "O",
          "STATION_SEQNO": "6",
          "STATION_ID": "K51A-U060",
          "STATION_LATITUDE": "22.40205",
          "STATION_LONGITUDE": "113.9776",
          "STATION_NAME_CHI": "井財街",
          "STATION_NAME_ENG": "Tseng Choi Street",
          "REFERENCE_ID": "K51A"
        },
        {
          "ROUTE_ID": "K51A",
          "DIRECTION": "O",
          "STATION_SEQNO": "7",
          "STATION_ID": "K51A-U070",
          "STATION_LATITUDE": "22.39834",
          "STATION_LONGITUDE": "113.9752",
          "STATION_NAME_CHI": "雅都商場",
          "STATION_NAME_ENG": "ACME Shopping Arcade",
          "REFERENCE_ID": "K51A"
        },
        {
          "ROUTE_ID": "K51A",
          "DIRECTION": "O",
          "STATION_SEQNO": "8",
          "STATION_ID": "K51A-U080",
          "STATION_LATITUDE": "22.39494",
          "STATION_LONGITUDE": "113.9746",
          "STATION_NAME_CHI": "德政圍 (港鐵屯門站)",
          "STATION_NAME_ENG": "Tak Ching Court (MTR Tuen Mun Station)",
          "REFERENCE_ID": "K51A"
        },
        {
          "ROUTE_ID": "K51A",
          "DIRECTION": "O",
          "STATION_SEQNO": "9",
          "STATION_ID": "K51A-U090",
          "STATION_LATITUDE": "22.39153",
          "STATION_LONGITUDE": "113.9755",
          "STATION_NAME_CHI": "屯門市中心 (輕鐵市中心站)",
          "STATION_NAME_ENG": "Tuen Mun Town Centre (LR Town Centre Stop)",
          "REFERENCE_ID": "K51A"
        },
        {
          "ROUTE_ID": "K51A",
          "DIRECTION": "O",
          "STATION_SEQNO": "10",
          "STATION_ID": "K51A-U100",
          "STATION_LATITUDE": "22.3906",
          "STATION_LONGITUDE": "113.9788",
          "STATION_NAME_CHI": "屯門官立中學",
          "STATION_NAME_ENG": "Tuen Mun Government Secondary School",
          "REFERENCE_ID": "K51A"
        },
        {
          "ROUTE_ID": "K51A",
          "DIRECTION": "O",
          "STATION_SEQNO": "11",
          "STATION_ID": "K51A-U110",
          "STATION_LATITUDE": "22.38771",
          "STATION_LONGITUDE": "113.9807",
          "STATION_NAME_CHI": "恒順園",
          "STATION_NAME_ENG": "Handsome Court",
          "REFERENCE_ID": "K51A"
        },
        {
          "ROUTE_ID": "K51A",
          "DIRECTION": "O",
          "STATION_SEQNO": "12",
          "STATION_ID": "K51A-U120",
          "STATION_LATITUDE": "22.38519",
          "STATION_LONGITUDE": "113.981",
          "STATION_NAME_CHI": "恒豐園",
          "STATION_NAME_ENG": "Harvest Garden",
          "REFERENCE_ID": "K51A"
        },
        {
          "ROUTE_ID": "K51A",
          "DIRECTION": "O",
          "STATION_SEQNO": "13",
          "STATION_ID": "K51A-U130",
          "STATION_LATITUDE": "22.381748",
          "STATION_LONGITUDE": "113.978862",
          "STATION_NAME_CHI": "三聖邨",
          "STATION_NAME_ENG": "Sam Shing Estate",
          "REFERENCE_ID": "K51A"
        },
        {
          "ROUTE_ID": "K51A",
          "DIRECTION": "O",
          "STATION_SEQNO": "14",
          "STATION_ID": "K51A-U140",
          "STATION_LATITUDE": "22.378898",
          "STATION_LONGITUDE": "113.980751",
          "STATION_NAME_CHI": "青山灣",
          "STATION_NAME_ENG": "Castle Peak Beach",
          "REFERENCE_ID": "K51A"
        },
        {
          "ROUTE_ID": "K51A",
          "DIRECTION": "O",
          "STATION_SEQNO": "15",
          "STATION_ID": "K51A-U150",
          "STATION_LATITUDE": "22.377938",
          "STATION_LONGITUDE": "113.983475",
          "STATION_NAME_CHI": "海景花園",
          "STATION_NAME_ENG": "Seaview Garden",
          "REFERENCE_ID": "K51A"
        },
        {
          "ROUTE_ID": "K51A",
          "DIRECTION": "O",
          "STATION_SEQNO": "16",
          "STATION_ID": "K51A-U160",
          "STATION_LATITUDE": "22.374926",
          "STATION_LONGITUDE": "113.986745",
          "STATION_NAME_CHI": "咖啡灣",
          "STATION_NAME_ENG": "Cafeteria Beach",
          "REFERENCE_ID": "K51A"
        },
        {
          "ROUTE_ID": "K51A",
          "DIRECTION": "O",
          "STATION_SEQNO": "17",
          "STATION_ID": "K51A-U170",
          "STATION_LATITUDE": "22.373784",
          "STATION_LONGITUDE": "113.990756",
          "STATION_NAME_CHI": "黃金泳灘",
          "STATION_NAME_ENG": "Golden Beach",
          "REFERENCE_ID": "K51A"
        },
        {
          "ROUTE_ID": "K51A",
          "DIRECTION": "O",
          "STATION_SEQNO": "18",
          "STATION_ID": "K51A-U180",
          "STATION_LATITUDE": "22.372025",
          "STATION_LONGITUDE": "113.993574",
          "STATION_NAME_CHI": "香港黃金海岸",
          "STATION_NAME_ENG": "Hong Kong Gold Coast",
          "REFERENCE_ID": "K51A"
        },
        {
          "ROUTE_ID": "K51A",
          "DIRECTION": "O",
          "STATION_SEQNO": "19",
          "STATION_ID": "K51A-U190",
          "STATION_LATITUDE": "22.371605",
          "STATION_LONGITUDE": "113.9954",
          "STATION_NAME_CHI": "愛琴海岸",
          "STATION_NAME_ENG": "Aegean Coast",
          "REFERENCE_ID": "K51A"
        },
        {
          "ROUTE_ID": "K51A",
          "DIRECTION": "O",
          "STATION_SEQNO": "20",
          "STATION_ID": "K51A-U200",
          "STATION_LATITUDE": "22.373878",
          "STATION_LONGITUDE": "113.996144",
          "STATION_NAME_CHI": "掃管笏變電站",
          "STATION_NAME_ENG": "So Kwun Wat Sub-station",
          "REFERENCE_ID": "K51A"
        },
        {
          "ROUTE_ID": "K51A",
          "DIRECTION": "O",
          "STATION_SEQNO": "21",
          "STATION_ID": "K51A-U210",
          "STATION_LATITUDE": "22.375743",
          "STATION_LONGITUDE": "113.999829",
          "STATION_NAME_CHI": "掃管笏村",
          "STATION_NAME_ENG": "So Kwun Wat Tsuen",
          "REFERENCE_ID": "K51A"
        },
        {
          "ROUTE_ID": "K51A",
          "DIRECTION": "O",
          "STATION_SEQNO": "22",
          "STATION_ID": "K51A-U220",
          "STATION_LATITUDE": "22.372023",
          "STATION_LONGITUDE": "114.003593",
          "STATION_NAME_CHI": "掃管笏 (鄭任安夫人千禧小學)",
          "STATION_NAME_ENG": "So Kwun Wat (Mrs. Cheng Yam On Millennium School)",
          "REFERENCE_ID": "K51A"
        },
        {
          "ROUTE_ID": "K51A",
          "DIRECTION": "O",
          "STATION_SEQNO": "23",
          "STATION_ID": "K51A-U230",
          "STATION_LATITUDE": "22.374216",
          "STATION_LONGITUDE": "114.002295",
          "STATION_NAME_CHI": "掃管笏路",
          "STATION_NAME_ENG": "So Kwun Wat Road",
          "REFERENCE_ID": "K51A"
        },
        {
          "ROUTE_ID": "K51A",
          "DIRECTION": "O",
          "STATION_SEQNO": "24",
          "STATION_ID": "K51A-U240",
          "STATION_LATITUDE": "22.373699",
          "STATION_LONGITUDE": "113.999513",
          "STATION_NAME_CHI": "管翠路8號",
          "STATION_NAME_ENG": "8 Kwun Chui Road",
          "REFERENCE_ID": "K51A"
        },
        {
          "ROUTE_ID": "K51A",
          "DIRECTION": "O",
          "STATION_SEQNO": "25",
          "STATION_ID": "K51A-U250",
          "STATION_LATITUDE": "22.375743",
          "STATION_LONGITUDE": "113.999829",
          "STATION_NAME_CHI": "掃管笏村",
          "STATION_NAME_ENG": "So Kwun Wat Tsuen",
          "REFERENCE_ID": "K51A"
        },
        {
          "ROUTE_ID": "K51A",
          "DIRECTION": "I",
          "STATION_SEQNO": "1",
          "STATION_ID": "K51A-D010",
          "STATION_LATITUDE": "22.375743",
          "STATION_LONGITUDE": "113.999829",
          "STATION_NAME_CHI": "掃管笏村",
          "STATION_NAME_ENG": "So Kwun Wat Tsuen",
          "REFERENCE_ID": "K51A"
        },
        {
          "ROUTE_ID": "K51A",
          "DIRECTION": "I",
          "STATION_SEQNO": "2",
          "STATION_ID": "K51A-D020",
          "STATION_LATITUDE": "22.372023",
          "STATION_LONGITUDE": "114.003593",
          "STATION_NAME_CHI": "掃管笏 (鄭任安夫人千禧小學)",
          "STATION_NAME_ENG": "So Kwun Wat (Mrs. Cheng Yam On Millennium School)",
          "REFERENCE_ID": "K51A"
        },
        {
          "ROUTE_ID": "K51A",
          "DIRECTION": "I",
          "STATION_SEQNO": "3",
          "STATION_ID": "K51A-D030",
          "STATION_LATITUDE": "22.374216",
          "STATION_LONGITUDE": "114.002295",
          "STATION_NAME_CHI": "掃管笏路",
          "STATION_NAME_ENG": "So Kwun Wat Road",
          "REFERENCE_ID": "K51A"
        },
        {
          "ROUTE_ID": "K51A",
          "DIRECTION": "I",
          "STATION_SEQNO": "4",
          "STATION_ID": "K51A-D040",
          "STATION_LATITUDE": "22.373699",
          "STATION_LONGITUDE": "113.999513",
          "STATION_NAME_CHI": "管翠路8號",
          "STATION_NAME_ENG": "8 Kwun Chui Road",
          "REFERENCE_ID": "K51A"
        },
        {
          "ROUTE_ID": "K51A",
          "DIRECTION": "I",
          "STATION_SEQNO": "5",
          "STATION_ID": "K51A-D050",
          "STATION_LATITUDE": "22.375123",
          "STATION_LONGITUDE": "113.997707",
          "STATION_NAME_CHI": "管翠路",
          "STATION_NAME_ENG": "Kwun Chui Road",
          "REFERENCE_ID": "K51A"
        },
        {
          "ROUTE_ID": "K51A",
          "DIRECTION": "I",
          "STATION_SEQNO": "6",
          "STATION_ID": "K51A-D060",
          "STATION_LATITUDE": "22.371473",
          "STATION_LONGITUDE": "113.995381",
          "STATION_NAME_CHI": "愛琴海岸",
          "STATION_NAME_ENG": "Aegean Coast",
          "REFERENCE_ID": "K51A"
        },
        {
          "ROUTE_ID": "K51A",
          "DIRECTION": "I",
          "STATION_SEQNO": "7",
          "STATION_ID": "K51A-D070",
          "STATION_LATITUDE": "22.371294",
          "STATION_LONGITUDE": "113.993906",
          "STATION_NAME_CHI": "香港黃金海岸",
          "STATION_NAME_ENG": "Hong Kong Gold Coast",
          "REFERENCE_ID": "K51A"
        },
        {
          "ROUTE_ID": "K51A",
          "DIRECTION": "I",
          "STATION_SEQNO": "8",
          "STATION_ID": "K51A-D080",
          "STATION_LATITUDE": "22.373628",
          "STATION_LONGITUDE": "113.991213",
          "STATION_NAME_CHI": "黃金泳灘",
          "STATION_NAME_ENG": "Golden Beach",
          "REFERENCE_ID": "K51A"
        },
        {
          "ROUTE_ID": "K51A",
          "DIRECTION": "I",
          "STATION_SEQNO": "9",
          "STATION_ID": "K51A-D090",
          "STATION_LATITUDE": "22.3759",
          "STATION_LONGITUDE": "113.985635",
          "STATION_NAME_CHI": "咖啡灣",
          "STATION_NAME_ENG": "Cafeteria Beach",
          "REFERENCE_ID": "K51A"
        },
        {
          "ROUTE_ID": "K51A",
          "DIRECTION": "I",
          "STATION_SEQNO": "10",
          "STATION_ID": "K51A-D100",
          "STATION_LATITUDE": "22.377927",
          "STATION_LONGITUDE": "113.983242",
          "STATION_NAME_CHI": "碧翠花園",
          "STATION_NAME_ENG": "Bayview Terrace",
          "REFERENCE_ID": "K51A"
        },
        {
          "ROUTE_ID": "K51A",
          "DIRECTION": "I",
          "STATION_SEQNO": "11",
          "STATION_ID": "K51A-D110",
          "STATION_LATITUDE": "22.378957",
          "STATION_LONGITUDE": "113.980602",
          "STATION_NAME_CHI": "青山灣碼頭",
          "STATION_NAME_ENG": "Castle Peak Bay Pier",
          "REFERENCE_ID": "K51A"
        },
        {
          "ROUTE_ID": "K51A",
          "DIRECTION": "I",
          "STATION_SEQNO": "12",
          "STATION_ID": "K51A-D120",
          "STATION_LATITUDE": "22.381214",
          "STATION_LONGITUDE": "113.979092",
          "STATION_NAME_CHI": "三聖邨",
          "STATION_NAME_ENG": "Sam Shing Estate",
          "REFERENCE_ID": "K51A"
        },
        {
          "ROUTE_ID": "K51A",
          "DIRECTION": "I",
          "STATION_SEQNO": "13",
          "STATION_ID": "K51A-D140",
          "STATION_LATITUDE": "22.383774",
          "STATION_LONGITUDE": "113.97939",
          "STATION_NAME_CHI": "胡陳金枝中學",
          "STATION_NAME_ENG": "Mrs Aw Boon Haw Secondary School",
          "REFERENCE_ID": "K51A"
        },
        {
          "ROUTE_ID": "K51A",
          "DIRECTION": "I",
          "STATION_SEQNO": "14",
          "STATION_ID": "K51A-D150",
          "STATION_LATITUDE": "22.384602",
          "STATION_LONGITUDE": "113.980638",
          "STATION_NAME_CHI": "青善遊樂場",
          "STATION_NAME_ENG": "Tsing Sin Playground",
          "REFERENCE_ID": "K51A"
        },
        {
          "ROUTE_ID": "K51A",
          "DIRECTION": "I",
          "STATION_SEQNO": "15",
          "STATION_ID": "K51A-D160",
          "STATION_LATITUDE": "22.387355",
          "STATION_LONGITUDE": "113.98069",
          "STATION_NAME_CHI": "置樂花園",
          "STATION_NAME_ENG": "Chi Lok Fa Yuen",
          "REFERENCE_ID": "K51A"
        },
        {
          "ROUTE_ID": "K51A",
          "DIRECTION": "I",
          "STATION_SEQNO": "16",
          "STATION_ID": "K51A-D170",
          "STATION_LATITUDE": "22.390433",
          "STATION_LONGITUDE": "113.978805",
          "STATION_NAME_CHI": "屯門官立中學",
          "STATION_NAME_ENG": "Tuen Mun Government Secondary School",
          "REFERENCE_ID": "K51A"
        },
        {
          "ROUTE_ID": "K51A",
          "DIRECTION": "I",
          "STATION_SEQNO": "17",
          "STATION_ID": "K51A-D180",
          "STATION_LATITUDE": "22.392116",
          "STATION_LONGITUDE": "113.975082",
          "STATION_NAME_CHI": "輕鐵市中心站",
          "STATION_NAME_ENG": "LR Town Centre Stop",
          "REFERENCE_ID": "K51A"
        },
        {
          "ROUTE_ID": "K51A",
          "DIRECTION": "I",
          "STATION_SEQNO": "18",
          "STATION_ID": "K51A-D190",
          "STATION_LATITUDE": "22.395021",
          "STATION_LONGITUDE": "113.974444",
          "STATION_NAME_CHI": "港鐵屯門站 (輕鐵屯門站)",
          "STATION_NAME_ENG": "MTR Tuen Mun Station (LR Tuen Mun Stop)",
          "REFERENCE_ID": "K51A"
        },
        {
          "ROUTE_ID": "K51A",
          "DIRECTION": "I",
          "STATION_SEQNO": "19",
          "STATION_ID": "K51A-D200",
          "STATION_LATITUDE": "22.397311",
          "STATION_LONGITUDE": "113.974853",
          "STATION_NAME_CHI": "聖公會聖西門呂明才中學",
          "STATION_NAME_ENG": "SKH St. Simon's Lui Ming Choi Secondary School",
          "REFERENCE_ID": "K51A"
        },
        {
          "ROUTE_ID": "K51A",
          "DIRECTION": "I",
          "STATION_SEQNO": "20",
          "STATION_ID": "K51A-D210",
          "STATION_LATITUDE": "22.40334",
          "STATION_LONGITUDE": "113.979247",
          "STATION_NAME_CHI": "景峰花園",
          "STATION_NAME_ENG": "Prime View Garden",
          "REFERENCE_ID": "K51A"
        },
        {
          "ROUTE_ID": "K51A",
          "DIRECTION": "I",
          "STATION_SEQNO": "21",
          "STATION_ID": "K51A-D220",
          "STATION_LATITUDE": "22.407254",
          "STATION_LONGITUDE": "113.978641",
          "STATION_NAME_CHI": "輕鐵鳳地站",
          "STATION_NAME_ENG": "LR Fung Tei Stop",
          "REFERENCE_ID": "K51A"
        },
        {
          "ROUTE_ID": "K51A",
          "DIRECTION": "I",
          "STATION_SEQNO": "22",
          "STATION_ID": "K51A-D230",
          "STATION_LATITUDE": "22.410378",
          "STATION_LONGITUDE": "113.978607",
          "STATION_NAME_CHI": "港鐵兆康站 (南) (輕鐵兆康站)",
          "STATION_NAME_ENG": "MTR Siu Hong Station (South) (LR Siu Hong Stop)",
          "REFERENCE_ID": "K51A"
        },
        {
          "ROUTE_ID": "K51A",
          "DIRECTION": "I",
          "STATION_SEQNO": "23",
          "STATION_ID": "K51A-D240",
          "STATION_LATITUDE": "22.408779",
          "STATION_LONGITUDE": "113.980397",
          "STATION_NAME_CHI": "彩暉花園",
          "STATION_NAME_ENG": "Brilliant Garden",
          "REFERENCE_ID": "K51A"
        },
        {
          "ROUTE_ID": "K51A",
          "DIRECTION": "I",
          "STATION_SEQNO": "24",
          "STATION_ID": "K51A-D250",
          "STATION_LATITUDE": "22.410694",
          "STATION_LONGITUDE": "113.982212",
          "STATION_NAME_CHI": "嶺南大學",
          "STATION_NAME_ENG": "Lingnan University",
          "REFERENCE_ID": "K51A"
        },
        {
          "ROUTE_ID": "K51A",
          "DIRECTION": "I",
          "STATION_SEQNO": "25",
          "STATION_ID": "K51A-D260",
          "STATION_LATITUDE": "22.411927",
          "STATION_LONGITUDE": "113.983128",
          "STATION_NAME_CHI": "倚嶺南庭",
          "STATION_NAME_ENG": "South Hillcrest",
          "REFERENCE_ID": "K51A"
        },
        {
          "ROUTE_ID": "K51A",
          "DIRECTION": "I",
          "STATION_SEQNO": "26",
          "STATION_ID": "K51A-D270",
          "STATION_LATITUDE": "22.413286",
          "STATION_LONGITUDE": "113.982895",
          "STATION_NAME_CHI": "富泰",
          "STATION_NAME_ENG": "Fu Tai",
          "REFERENCE_ID": "K51A"
        }
      ]
    },
    {
      "ROUTE_ID": "K51",
      "ROUTE_NAME_CHI": "富泰至兆康站",
      "ROUTE_NAME_ENG": "Fu Tai to Siu Hong Station",
      "IS_CIRCULAR": "0",
      "LINE_UP": "K51_FT_SHS",
      "LINE_DOWN": "",
      "REFERENCE_ID": "K51-1",
      "stops": [
        {
          "ROUTE_ID": "K51",
          "DIRECTION": "O",
          "STATION_SEQNO": "1",
          "STATION_ID": "K51-U010",
          "STATION_LATITUDE": "22.413286",
          "STATION_LONGITUDE": "113.982895",
          "STATION_NAME_CHI": "富泰",
          "STATION_NAME_ENG": "Fu Tai",
          "REFERENCE_ID": "K51"
        },
        {
          "ROUTE_ID": "K51",
          "DIRECTION": "O",
          "STATION_SEQNO": "2",
          "STATION_ID": "K51-U020",
          "STATION_LATITUDE": "22.412025",
          "STATION_LONGITUDE": "113.983771",
          "STATION_NAME_CHI": "聚康山莊",
          "STATION_NAME_ENG": "Beneville",
          "REFERENCE_ID": "K51"
        },
        {
          "ROUTE_ID": "K51",
          "DIRECTION": "O",
          "STATION_SEQNO": "3",
          "STATION_ID": "K51-U030",
          "STATION_LATITUDE": "22.41059",
          "STATION_LONGITUDE": "113.982387",
          "STATION_NAME_CHI": "嶺南大學",
          "STATION_NAME_ENG": "Lingnan University",
          "REFERENCE_ID": "K51"
        },
        {
          "ROUTE_ID": "K51",
          "DIRECTION": "O",
          "STATION_SEQNO": "4",
          "STATION_ID": "K51-U040",
          "STATION_LATITUDE": "22.408575",
          "STATION_LONGITUDE": "113.980046",
          "STATION_NAME_CHI": "彩暉花園",
          "STATION_NAME_ENG": "Brilliant Garden",
          "REFERENCE_ID": "K51"
        },
        {
          "ROUTE_ID": "K51",
          "DIRECTION": "O",
          "STATION_SEQNO": "5",
          "STATION_ID": "K51-U050",
          "STATION_LATITUDE": "22.410247",
          "STATION_LONGITUDE": "113.978583",
          "STATION_NAME_CHI": "港鐵兆康站 (南) (輕鐵兆康站)",
          "STATION_NAME_ENG": "MTR Siu Hong Station (South) (LR Siu Hong Stop)",
          "REFERENCE_ID": "K51"
        },
        {
          "ROUTE_ID": "K51",
          "DIRECTION": "O",
          "STATION_SEQNO": "6",
          "STATION_ID": "K51-U060",
          "STATION_LATITUDE": "22.40205",
          "STATION_LONGITUDE": "113.9776",
          "STATION_NAME_CHI": "井財街",
          "STATION_NAME_ENG": "Tseng Choi Street",
          "REFERENCE_ID": "K51"
        },
        {
          "ROUTE_ID": "K51",
          "DIRECTION": "O",
          "STATION_SEQNO": "7",
          "STATION_ID": "K51-U070",
          "STATION_LATITUDE": "22.39834",
          "STATION_LONGITUDE": "113.9752",
          "STATION_NAME_CHI": "雅都商場",
          "STATION_NAME_ENG": "ACME Shopping Arcade",
          "REFERENCE_ID": "K51"
        },
        {
          "ROUTE_ID": "K51",
          "DIRECTION": "O",
          "STATION_SEQNO": "8",
          "STATION_ID": "K51-U080",
          "STATION_LATITUDE": "22.39494",
          "STATION_LONGITUDE": "113.9746",
          "STATION_NAME_CHI": "德政圍 (港鐵屯門站)",
          "STATION_NAME_ENG": "Tak Ching Court (MTR Tuen Mun Station)",
          "REFERENCE_ID": "K51"
        },
        {
          "ROUTE_ID": "K51",
          "DIRECTION": "O",
          "STATION_SEQNO": "9",
          "STATION_ID": "K51-U090",
          "STATION_LATITUDE": "22.39153",
          "STATION_LONGITUDE": "113.9755",
          "STATION_NAME_CHI": "屯門市中心 (輕鐵市中心站)",
          "STATION_NAME_ENG": "Tuen Mun Town Centre (LR Town Centre Stop)",
          "REFERENCE_ID": "K51"
        },
        {
          "ROUTE_ID": "K51",
          "DIRECTION": "O",
          "STATION_SEQNO": "10",
          "STATION_ID": "K51-U100",
          "STATION_LATITUDE": "22.3906",
          "STATION_LONGITUDE": "113.9788",
          "STATION_NAME_CHI": "屯門官立中學",
          "STATION_NAME_ENG": "Tuen Mun Government Secondary School",
          "REFERENCE_ID": "K51"
        },
        {
          "ROUTE_ID": "K51",
          "DIRECTION": "O",
          "STATION_SEQNO": "11",
          "STATION_ID": "K51-U110",
          "STATION_LATITUDE": "22.38771",
          "STATION_LONGITUDE": "113.9807",
          "STATION_NAME_CHI": "恒順園",
          "STATION_NAME_ENG": "Handsome Court",
          "REFERENCE_ID": "K51"
        },
        {
          "ROUTE_ID": "K51",
          "DIRECTION": "O",
          "STATION_SEQNO": "12",
          "STATION_ID": "K51-U120",
          "STATION_LATITUDE": "22.38519",
          "STATION_LONGITUDE": "113.981",
          "STATION_NAME_CHI": "恒豐園",
          "STATION_NAME_ENG": "Harvest Garden",
          "REFERENCE_ID": "K51"
        },
        {
          "ROUTE_ID": "K51",
          "DIRECTION": "O",
          "STATION_SEQNO": "13",
          "STATION_ID": "K51-U130",
          "STATION_LATITUDE": "22.381748",
          "STATION_LONGITUDE": "113.978862",
          "STATION_NAME_CHI": "三聖邨",
          "STATION_NAME_ENG": "Sam Shing Estate",
          "REFERENCE_ID": "K51"
        },
        {
          "ROUTE_ID": "K51",
          "DIRECTION": "O",
          "STATION_SEQNO": "14",
          "STATION_ID": "K51-U140",
          "STATION_LATITUDE": "22.378898",
          "STATION_LONGITUDE": "113.980751",
          "STATION_NAME_CHI": "青山灣",
          "STATION_NAME_ENG": "Castle Peak Beach",
          "REFERENCE_ID": "K51"
        },
        {
          "ROUTE_ID": "K51",
          "DIRECTION": "O",
          "STATION_SEQNO": "15",
          "STATION_ID": "K51-U150",
          "STATION_LATITUDE": "22.377938",
          "STATION_LONGITUDE": "113.983475",
          "STATION_NAME_CHI": "海景花園",
          "STATION_NAME_ENG": "Seaview Garden",
          "REFERENCE_ID": "K51"
        },
        {
          "ROUTE_ID": "K51",
          "DIRECTION": "O",
          "STATION_SEQNO": "16",
          "STATION_ID": "K51-U160",
          "STATION_LATITUDE": "22.374926",
          "STATION_LONGITUDE": "113.986745",
          "STATION_NAME_CHI": "咖啡灣",
          "STATION_NAME_ENG": "Cafeteria Beach",
          "REFERENCE_ID": "K51"
        },
        {
          "ROUTE_ID": "K51",
          "DIRECTION": "O",
          "STATION_SEQNO": "17",
          "STATION_ID": "K51-U170",
          "STATION_LATITUDE": "22.373784",
          "STATION_LONGITUDE": "113.990756",
          "STATION_NAME_CHI": "黃金泳灘",
          "STATION_NAME_ENG": "Golden Beach",
          "REFERENCE_ID": "K51"
        },
        {
          "ROUTE_ID": "K51",
          "DIRECTION": "O",
          "STATION_SEQNO": "18",
          "STATION_ID": "K51-U180",
          "STATION_LATITUDE": "22.372025",
          "STATION_LONGITUDE": "113.993574",
          "STATION_NAME_CHI": "香港黃金海岸",
          "STATION_NAME_ENG": "Hong Kong Gold Coast",
          "REFERENCE_ID": "K51"
        },
        {
          "ROUTE_ID": "K51",
          "DIRECTION": "O",
          "STATION_SEQNO": "19",
          "STATION_ID": "K51-U190",
          "STATION_LATITUDE": "22.36945",
          "STATION_LONGITUDE": "113.9954",
          "STATION_NAME_CHI": "嘉禾里村",
          "STATION_NAME_ENG": "Kar Wo Lei Tsuen",
          "REFERENCE_ID": "K51"
        },
        {
          "ROUTE_ID": "K51",
          "DIRECTION": "O",
          "STATION_SEQNO": "20",
          "STATION_ID": "K51-U200",
          "STATION_LATITUDE": "22.36817",
          "STATION_LONGITUDE": "113.9991",
          "STATION_NAME_CHI": "小秀村",
          "STATION_NAME_ENG": "Siu Sau Tsuen",
          "REFERENCE_ID": "K51"
        },
        {
          "ROUTE_ID": "K51",
          "DIRECTION": "O",
          "STATION_SEQNO": "21",
          "STATION_ID": "K51-U210",
          "STATION_LATITUDE": "22.36627",
          "STATION_LONGITUDE": "114.0033",
          "STATION_NAME_CHI": "愛琴灣",
          "STATION_NAME_ENG": "The Aegean",
          "REFERENCE_ID": "K51"
        },
        {
          "ROUTE_ID": "K51",
          "DIRECTION": "O",
          "STATION_SEQNO": "22",
          "STATION_ID": "K51-U220",
          "STATION_LATITUDE": "22.36638",
          "STATION_LONGITUDE": "114.0063",
          "STATION_NAME_CHI": "小欖新村",
          "STATION_NAME_ENG": "Siu Lam San Tsuen",
          "REFERENCE_ID": "K51"
        },
        {
          "ROUTE_ID": "K51",
          "DIRECTION": "O",
          "STATION_SEQNO": "23",
          "STATION_ID": "K51-U230",
          "STATION_LATITUDE": "22.3663",
          "STATION_LONGITUDE": "114.0113",
          "STATION_NAME_CHI": "小欖村",
          "STATION_NAME_ENG": "Siu Lam Tsuen",
          "REFERENCE_ID": "K51"
        },
        {
          "ROUTE_ID": "K51",
          "DIRECTION": "O",
          "STATION_SEQNO": "24",
          "STATION_ID": "K51-U240",
          "STATION_LATITUDE": "22.36497",
          "STATION_LONGITUDE": "114.0133",
          "STATION_NAME_CHI": "小欖澄麗路",
          "STATION_NAME_ENG": "Ching Lai Road Siu Lam",
          "REFERENCE_ID": "K51"
        },
        {
          "ROUTE_ID": "K51",
          "DIRECTION": "O",
          "STATION_SEQNO": "25",
          "STATION_ID": "K51-U250",
          "STATION_LATITUDE": "22.362495",
          "STATION_LONGITUDE": "114.019113",
          "STATION_NAME_CHI": "大欖",
          "STATION_NAME_ENG": "Tai Lam",
          "REFERENCE_ID": "K51"
        },
        {
          "ROUTE_ID": "K51",
          "DIRECTION": "I",
          "STATION_SEQNO": "1",
          "STATION_ID": "K51-D010",
          "STATION_LATITUDE": "22.362495",
          "STATION_LONGITUDE": "114.019113",
          "STATION_NAME_CHI": "大欖",
          "STATION_NAME_ENG": "Tai Lam",
          "REFERENCE_ID": "K51"
        },
        {
          "ROUTE_ID": "K51",
          "DIRECTION": "I",
          "STATION_SEQNO": "2",
          "STATION_ID": "K51-D020",
          "STATION_LATITUDE": "22.364165",
          "STATION_LONGITUDE": "114.014994",
          "STATION_NAME_CHI": "小欖",
          "STATION_NAME_ENG": "Siu Lam",
          "REFERENCE_ID": "K51"
        },
        {
          "ROUTE_ID": "K51",
          "DIRECTION": "I",
          "STATION_SEQNO": "3",
          "STATION_ID": "K51-D030",
          "STATION_LATITUDE": "22.365696",
          "STATION_LONGITUDE": "114.01244",
          "STATION_NAME_CHI": "小欖澄麗路",
          "STATION_NAME_ENG": "Ching Lai Road Siu Lam",
          "REFERENCE_ID": "K51"
        },
        {
          "ROUTE_ID": "K51",
          "DIRECTION": "I",
          "STATION_SEQNO": "4",
          "STATION_ID": "K51-D040",
          "STATION_LATITUDE": "22.366338",
          "STATION_LONGITUDE": "114.00949",
          "STATION_NAME_CHI": "小欖村",
          "STATION_NAME_ENG": "Siu Lam Tsuen",
          "REFERENCE_ID": "K51"
        },
        {
          "ROUTE_ID": "K51",
          "DIRECTION": "I",
          "STATION_SEQNO": "5",
          "STATION_ID": "K51-D050",
          "STATION_LATITUDE": "22.366102",
          "STATION_LONGITUDE": "114.005524",
          "STATION_NAME_CHI": "小欖新村",
          "STATION_NAME_ENG": "Siu Lam San Tsuen",
          "REFERENCE_ID": "K51"
        },
        {
          "ROUTE_ID": "K51",
          "DIRECTION": "I",
          "STATION_SEQNO": "6",
          "STATION_ID": "K51-D060",
          "STATION_LATITUDE": "22.366573",
          "STATION_LONGITUDE": "114.001616",
          "STATION_NAME_CHI": "愛琴灣",
          "STATION_NAME_ENG": "The Aegean",
          "REFERENCE_ID": "K51"
        },
        {
          "ROUTE_ID": "K51",
          "DIRECTION": "I",
          "STATION_SEQNO": "7",
          "STATION_ID": "K51-D070",
          "STATION_LATITUDE": "22.368003",
          "STATION_LONGITUDE": "113.999085",
          "STATION_NAME_CHI": "小秀上村",
          "STATION_NAME_ENG": "Siu Sau Sheung Tsuen",
          "REFERENCE_ID": "K51"
        },
        {
          "ROUTE_ID": "K51",
          "DIRECTION": "I",
          "STATION_SEQNO": "8",
          "STATION_ID": "K51-D080",
          "STATION_LATITUDE": "22.368035",
          "STATION_LONGITUDE": "113.996264",
          "STATION_NAME_CHI": "龍珠島",
          "STATION_NAME_ENG": "Pearl Island",
          "REFERENCE_ID": "K51"
        },
        {
          "ROUTE_ID": "K51",
          "DIRECTION": "I",
          "STATION_SEQNO": "9",
          "STATION_ID": "K51-D090",
          "STATION_LATITUDE": "22.371285",
          "STATION_LONGITUDE": "113.993882",
          "STATION_NAME_CHI": "香港黃金海岸",
          "STATION_NAME_ENG": "Hong Kong Gold Coast",
          "REFERENCE_ID": "K51"
        },
        {
          "ROUTE_ID": "K51",
          "DIRECTION": "I",
          "STATION_SEQNO": "10",
          "STATION_ID": "K51-D100",
          "STATION_LATITUDE": "22.373628",
          "STATION_LONGITUDE": "113.991213",
          "STATION_NAME_CHI": "黃金泳灘",
          "STATION_NAME_ENG": "Golden Beach",
          "REFERENCE_ID": "K51"
        },
        {
          "ROUTE_ID": "K51",
          "DIRECTION": "I",
          "STATION_SEQNO": "11",
          "STATION_ID": "K51-D110",
          "STATION_LATITUDE": "22.3759",
          "STATION_LONGITUDE": "113.985635",
          "STATION_NAME_CHI": "咖啡灣",
          "STATION_NAME_ENG": "Cafeteria Beach",
          "REFERENCE_ID": "K51"
        },
        {
          "ROUTE_ID": "K51",
          "DIRECTION": "I",
          "STATION_SEQNO": "12",
          "STATION_ID": "K51-D120",
          "STATION_LATITUDE": "22.377927",
          "STATION_LONGITUDE": "113.983242",
          "STATION_NAME_CHI": "碧翠花園",
          "STATION_NAME_ENG": "Bayview Terrace",
          "REFERENCE_ID": "K51"
        },
        {
          "ROUTE_ID": "K51",
          "DIRECTION": "I",
          "STATION_SEQNO": "13",
          "STATION_ID": "K51-D130",
          "STATION_LATITUDE": "22.378957",
          "STATION_LONGITUDE": "113.980602",
          "STATION_NAME_CHI": "青山灣碼頭",
          "STATION_NAME_ENG": "Castle Peak Bay Pier",
          "REFERENCE_ID": "K51"
        },
        {
          "ROUTE_ID": "K51",
          "DIRECTION": "I",
          "STATION_SEQNO": "14",
          "STATION_ID": "K51-D140",
          "STATION_LATITUDE": "22.381214",
          "STATION_LONGITUDE": "113.979092",
          "STATION_NAME_CHI": "三聖邨",
          "STATION_NAME_ENG": "Sam Shing Estate",
          "REFERENCE_ID": "K51"
        },
        {
          "ROUTE_ID": "K51",
          "DIRECTION": "I",
          "STATION_SEQNO": "15",
          "STATION_ID": "K51-D150",
          "STATION_LATITUDE": "22.382064",
          "STATION_LONGITUDE": "113.977151",
          "STATION_NAME_CHI": "恆福花園 (輕鐵三聖站)",
          "STATION_NAME_ENG": "Hanford Garden (LR Sam Shing Stop)",
          "REFERENCE_ID": "K51"
        },
        {
          "ROUTE_ID": "K51",
          "DIRECTION": "I",
          "STATION_SEQNO": "16",
          "STATION_ID": "K51-D160",
          "STATION_LATITUDE": "22.383774",
          "STATION_LONGITUDE": "113.97939",
          "STATION_NAME_CHI": "胡陳金枝中學",
          "STATION_NAME_ENG": "Mrs Aw Boon Haw Secondary School",
          "REFERENCE_ID": "K51"
        },
        {
          "ROUTE_ID": "K51",
          "DIRECTION": "I",
          "STATION_SEQNO": "17",
          "STATION_ID": "K51-D170",
          "STATION_LATITUDE": "22.384602",
          "STATION_LONGITUDE": "113.980638",
          "STATION_NAME_CHI": "青善遊樂場",
          "STATION_NAME_ENG": "Tsing Sin Playground",
          "REFERENCE_ID": "K51"
        },
        {
          "ROUTE_ID": "K51",
          "DIRECTION": "I",
          "STATION_SEQNO": "18",
          "STATION_ID": "K51-D180",
          "STATION_LATITUDE": "22.387355",
          "STATION_LONGITUDE": "113.98069",
          "STATION_NAME_CHI": "置樂花園",
          "STATION_NAME_ENG": "Chi Lok Fa Yuen",
          "REFERENCE_ID": "K51"
        },
        {
          "ROUTE_ID": "K51",
          "DIRECTION": "I",
          "STATION_SEQNO": "19",
          "STATION_ID": "K51-D190",
          "STATION_LATITUDE": "22.390433",
          "STATION_LONGITUDE": "113.978805",
          "STATION_NAME_CHI": "屯門官立中學",
          "STATION_NAME_ENG": "Tuen Mun Government Secondary School",
          "REFERENCE_ID": "K51"
        },
        {
          "ROUTE_ID": "K51",
          "DIRECTION": "I",
          "STATION_SEQNO": "20",
          "STATION_ID": "K51-D200",
          "STATION_LATITUDE": "22.392116",
          "STATION_LONGITUDE": "113.975082",
          "STATION_NAME_CHI": "輕鐵市中心站",
          "STATION_NAME_ENG": "LR Town Centre Stop",
          "REFERENCE_ID": "K51"
        },
        {
          "ROUTE_ID": "K51",
          "DIRECTION": "I",
          "STATION_SEQNO": "21",
          "STATION_ID": "K51-D210",
          "STATION_LATITUDE": "22.395021",
          "STATION_LONGITUDE": "113.974444",
          "STATION_NAME_CHI": "港鐵屯門站 (輕鐵屯門站)",
          "STATION_NAME_ENG": "MTR Tuen Mun Station (LR Tuen Mun Stop)",
          "REFERENCE_ID": "K51"
        },
        {
          "ROUTE_ID": "K51",
          "DIRECTION": "I",
          "STATION_SEQNO": "22",
          "STATION_ID": "K51-D220",
          "STATION_LATITUDE": "22.397311",
          "STATION_LONGITUDE": "113.974853",
          "STATION_NAME_CHI": "聖公會聖西門呂明才中學",
          "STATION_NAME_ENG": "SKH St. Simon's Lui Ming Choi Secondary School",
          "REFERENCE_ID": "K51"
        },
        {
          "ROUTE_ID": "K51",
          "DIRECTION": "I",
          "STATION_SEQNO": "23",
          "STATION_ID": "K51-D230",
          "STATION_LATITUDE": "22.40334",
          "STATION_LONGITUDE": "113.979247",
          "STATION_NAME_CHI": "景峰花園",
          "STATION_NAME_ENG": "Prime View Garden",
          "REFERENCE_ID": "K51"
        },
        {
          "ROUTE_ID": "K51",
          "DIRECTION": "I",
          "STATION_SEQNO": "24",
          "STATION_ID": "K51-D240",
          "STATION_LATITUDE": "22.407254",
          "STATION_LONGITUDE": "113.978641",
          "STATION_NAME_CHI": "輕鐵鳳地站",
          "STATION_NAME_ENG": "LR Fung Tei Stop",
          "REFERENCE_ID": "K51"
        },
        {
          "ROUTE_ID": "K51",
          "DIRECTION": "I",
          "STATION_SEQNO": "25",
          "STATION_ID": "K51-D250",
          "STATION_LATITUDE": "22.410378",
          "STATION_LONGITUDE": "113.978607",
          "STATION_NAME_CHI": "港鐵兆康站 (南) (輕鐵兆康站)",
          "STATION_NAME_ENG": "MTR Siu Hong Station (South) (LR Siu Hong Stop)",
          "REFERENCE_ID": "K51"
        },
        {
          "ROUTE_ID": "K51",
          "DIRECTION": "I",
          "STATION_SEQNO": "26",
          "STATION_ID": "K51-D260",
          "STATION_LATITUDE": "22.408779",
          "STATION_LONGITUDE": "113.980397",
          "STATION_NAME_CHI": "彩暉花園",
          "STATION_NAME_ENG": "Brilliant Garden",
          "REFERENCE_ID": "K51"
        },
        {
          "ROUTE_ID": "K51",
          "DIRECTION": "I",
          "STATION_SEQNO": "27",
          "STATION_ID": "K51-D270",
          "STATION_LATITUDE": "22.410694",
          "STATION_LONGITUDE": "113.982212",
          "STATION_NAME_CHI": "嶺南大學",
          "STATION_NAME_ENG": "Lingnan University",
          "REFERENCE_ID": "K51"
        },
        {
          "ROUTE_ID": "K51",
          "DIRECTION": "I",
          "STATION_SEQNO": "28",
          "STATION_ID": "K51-D280",
          "STATION_LATITUDE": "22.411927",
          "STATION_LONGITUDE": "113.983128",
          "STATION_NAME_CHI": "倚嶺南庭",
          "STATION_NAME_ENG": "South Hillcrest",
          "REFERENCE_ID": "K51"
        },
        {
          "ROUTE_ID": "K51",
          "DIRECTION": "I",
          "STATION_SEQNO": "29",
          "STATION_ID": "K51-D290",
          "STATION_LATITUDE": "22.413286",
          "STATION_LONGITUDE": "113.982895",
          "STATION_NAME_CHI": "富泰",
          "STATION_NAME_ENG": "Fu Tai",
          "REFERENCE_ID": "K51"
        },
        {
          "ROUTE_ID": "K51",
          "DIRECTION": "O",
          "STATION_SEQNO": "1",
          "STATION_ID": "K51-U010",
          "STATION_LATITUDE": "22.413286",
          "STATION_LONGITUDE": "113.982895",
          "STATION_NAME_CHI": "富泰",
          "STATION_NAME_ENG": "Fu Tai",
          "REFERENCE_ID": "K51-1"
        },
        {
          "ROUTE_ID": "K51",
          "DIRECTION": "O",
          "STATION_SEQNO": "2",
          "STATION_ID": "K51-U020",
          "STATION_LATITUDE": "22.412025",
          "STATION_LONGITUDE": "113.983771",
          "STATION_NAME_CHI": "聚康山莊",
          "STATION_NAME_ENG": "Beneville",
          "REFERENCE_ID": "K51-1"
        },
        {
          "ROUTE_ID": "K51",
          "DIRECTION": "O",
          "STATION_SEQNO": "3",
          "STATION_ID": "K51-U030",
          "STATION_LATITUDE": "22.41059",
          "STATION_LONGITUDE": "113.982387",
          "STATION_NAME_CHI": "嶺南大學",
          "STATION_NAME_ENG": "Lingnan University",
          "REFERENCE_ID": "K51-1"
        },
        {
          "ROUTE_ID": "K51",
          "DIRECTION": "O",
          "STATION_SEQNO": "4",
          "STATION_ID": "K51-U040",
          "STATION_LATITUDE": "22.408575",
          "STATION_LONGITUDE": "113.980046",
          "STATION_NAME_CHI": "彩暉花園",
          "STATION_NAME_ENG": "Brilliant Garden",
          "REFERENCE_ID": "K51-1"
        },
        {
          "ROUTE_ID": "K51",
          "DIRECTION": "O",
          "STATION_SEQNO": "5",
          "STATION_ID": "K51-U050",
          "STATION_LATITUDE": "22.410247",
          "STATION_LONGITUDE": "113.978583",
          "STATION_NAME_CHI": "港鐵兆康站 (南)",
          "STATION_NAME_ENG": "MTR Siu Hong Station (South)",
          "REFERENCE_ID": "K51-1"
        },
        {
          "ROUTE_ID": "K51",
          "DIRECTION": "O",
          "STATION_SEQNO": "1",
          "STATION_ID": "K51-D250",
          "STATION_LATITUDE": "22.410378",
          "STATION_LONGITUDE": "113.978607",
          "STATION_NAME_CHI": "港鐵兆康站 (南) ",
          "STATION_NAME_ENG": "MTR Siu Hong Station (South) ",
          "REFERENCE_ID": "K51-2"
        },
        {
          "ROUTE_ID": "K51",
          "DIRECTION": "O",
          "STATION_SEQNO": "2",
          "STATION_ID": "K51-D260",
          "STATION_LATITUDE": "22.408779",
          "STATION_LONGITUDE": "113.980397",
          "STATION_NAME_CHI": "彩暉花園",
          "STATION_NAME_ENG": "Brilliant Garden",
          "REFERENCE_ID": "K51-2"
        },
        {
          "ROUTE_ID": "K51",
          "DIRECTION": "O",
          "STATION_SEQNO": "3",
          "STATION_ID": "K51-D270",
          "STATION_LATITUDE": "22.410694",
          "STATION_LONGITUDE": "113.982212",
          "STATION_NAME_CHI": "嶺南大學",
          "STATION_NAME_ENG": "Lingnan University",
          "REFERENCE_ID": "K51-2"
        },
        {
          "ROUTE_ID": "K51",
          "DIRECTION": "O",
          "STATION_SEQNO": "4",
          "STATION_ID": "K51-D280",
          "STATION_LATITUDE": "22.411927",
          "STATION_LONGITUDE": "113.983128",
          "STATION_NAME_CHI": "倚嶺南庭",
          "STATION_NAME_ENG": "South Hillcrest",
          "REFERENCE_ID": "K51-2"
        },
        {
          "ROUTE_ID": "K51",
          "DIRECTION": "O",
          "STATION_SEQNO": "5",
          "STATION_ID": "K51-D290",
          "STATION_LATITUDE": "22.413286",
          "STATION_LONGITUDE": "113.982895",
          "STATION_NAME_CHI": "富泰",
          "STATION_NAME_ENG": "Fu Tai",
          "REFERENCE_ID": "K51-2"
        }
      ]
    },
    {
      "ROUTE_ID": "K51",
      "ROUTE_NAME_CHI": "兆康站至富泰",
      "ROUTE_NAME_ENG": "Siu Hong Station to Fu Tai",
      "IS_CIRCULAR": "0",
      "LINE_UP": "K51_SHS_FT",
      "LINE_DOWN": "",
      "REFERENCE_ID": "K51-2",
      "stops": [
        {
          "ROUTE_ID": "K51",
          "DIRECTION": "O",
          "STATION_SEQNO": "1",
          "STATION_ID": "K51-U010",
          "STATION_LATITUDE": "22.413286",
          "STATION_LONGITUDE": "113.982895",
          "STATION_NAME_CHI": "富泰",
          "STATION_NAME_ENG": "Fu Tai",
          "REFERENCE_ID": "K51"
        },
        {
          "ROUTE_ID": "K51",
          "DIRECTION": "O",
          "STATION_SEQNO": "2",
          "STATION_ID": "K51-U020",
          "STATION_LATITUDE": "22.412025",
          "STATION_LONGITUDE": "113.983771",
          "STATION_NAME_CHI": "聚康山莊",
          "STATION_NAME_ENG": "Beneville",
          "REFERENCE_ID": "K51"
        },
        {
          "ROUTE_ID": "K51",
          "DIRECTION": "O",
          "STATION_SEQNO": "3",
          "STATION_ID": "K51-U030",
          "STATION_LATITUDE": "22.41059",
          "STATION_LONGITUDE": "113.982387",
          "STATION_NAME_CHI": "嶺南大學",
          "STATION_NAME_ENG": "Lingnan University",
          "REFERENCE_ID": "K51"
        },
        {
          "ROUTE_ID": "K51",
          "DIRECTION": "O",
          "STATION_SEQNO": "4",
          "STATION_ID": "K51-U040",
          "STATION_LATITUDE": "22.408575",
          "STATION_LONGITUDE": "113.980046",
          "STATION_NAME_CHI": "彩暉花園",
          "STATION_NAME_ENG": "Brilliant Garden",
          "REFERENCE_ID": "K51"
        },
        {
          "ROUTE_ID": "K51",
          "DIRECTION": "O",
          "STATION_SEQNO": "5",
          "STATION_ID": "K51-U050",
          "STATION_LATITUDE": "22.410247",
          "STATION_LONGITUDE": "113.978583",
          "STATION_NAME_CHI": "港鐵兆康站 (南) (輕鐵兆康站)",
          "STATION_NAME_ENG": "MTR Siu Hong Station (South) (LR Siu Hong Stop)",
          "REFERENCE_ID": "K51"
        },
        {
          "ROUTE_ID": "K51",
          "DIRECTION": "O",
          "STATION_SEQNO": "6",
          "STATION_ID": "K51-U060",
          "STATION_LATITUDE": "22.40205",
          "STATION_LONGITUDE": "113.9776",
          "STATION_NAME_CHI": "井財街",
          "STATION_NAME_ENG": "Tseng Choi Street",
          "REFERENCE_ID": "K51"
        },
        {
          "ROUTE_ID": "K51",
          "DIRECTION": "O",
          "STATION_SEQNO": "7",
          "STATION_ID": "K51-U070",
          "STATION_LATITUDE": "22.39834",
          "STATION_LONGITUDE": "113.9752",
          "STATION_NAME_CHI": "雅都商場",
          "STATION_NAME_ENG": "ACME Shopping Arcade",
          "REFERENCE_ID": "K51"
        },